LAT,LON,CITY,COUNTRY,NUM
36.3000,5.2950,'Ain Abessa,Algeria,1012074116
36.2325,6.9440,'Ain Abid,Algeria,1012017837
36.1833,5.3167,'Ain Arnat,Algeria,1012453452
35.8433,5.5219,'Ain Azel,Algeria,1012746080
35.9411,7.1856,'Ain Babouche,Algeria,1012030735
35.8912,3.1585,'Ain Boucif,Algeria,1012875475
35.4075,-0.8817,'Ain el Arbaa,Algeria,1012550182
36.7864,8.3825,'Ain el Assel,Algeria,1012143253
34.3500,3.2167,'Ain el Bell,Algeria,1012893320
36.5714,4.3097,'Ain el Hammam,Algeria,1012595495
34.8483,4.1611,'Ain el Melh,Algeria,1012240027
35.7408,-0.7492,'Ain el Turk,Algeria,1012709372
35.2250,-0.0017,'Ain Fekan,Algeria,1012085133
36.5939,8.2011,'Ain Kerma,Algeria,1012695956
35.2044,-1.1961,'Ain Kihal,Algeria,1012357673
33.2833,-5.3833,'Ain Leuh,Morocco,1504668626
34.8000,3.1333,'Ain Mabed,Algeria,1012464210
36.1628,0.9706,'Ain Merane,Algeria,1012000026
34.7500,3.4833,'Ain Mouilah,Algeria,1012992575
34.6883,6.0886,'Ain Naga,Algeria,1012796439
36.3344,5.1806,'Ain Roua,Algeria,1012529757
36.1289,5.0767,'Ain Taghrout,Algeria,1012926101
34.9167,-0.9667,'Ain Tellout,Algeria,1012421224
35.2483,-1.2489,'Ain Tolba,Algeria,1012934787
31.9100,-7.2100,'Ali Ben Sliman,Morocco,1504127885
34.0889,-2.0247,'Ayn Bni Mathar,Morocco,1504845272
51.7833,4.6167,'s-Gravendeel,Netherlands,1528706910
52.0000,4.1667,'s-Gravenzande,Netherlands,1528221207
51.8764,6.2458,'s-Heerenberg,Netherlands,1528329380
51.6833,5.3000,'s-Hertogenbosch,Netherlands,1528012333
32.5770,-6.8400,'Tlat Bni Oukil,Morocco,1504789319
31.3237,34.3476,`Abasan al Kabirah,Gaza Strip,1916769088
33.6000,36.5150,`Adra,Syria,1760640037
36.5083,36.8692,`Afrin,Syria,1760410858
35.6739,3.8817,`Ain el Hadjel,Algeria,1012857642
37.4833,45.8911,`Ajab Shir,Iran,1364433724
32.3325,35.7517,`Ajlun,Jordan,1400775371
25.4136,55.4456,`Ajman,United Arab Emirates,1784337875
32.9278,35.0817,`Akko,Israel,1376781950
8.3000,38.9500,`Alem T'ena,Ethiopia,1231008148
28.9306,51.0689,`Ali Shahr,Iran,1364067141
36.9075,54.8667,`Aliabad-e Katul,Iran,1364000152
15.6594,43.9439,`Amran,Yemen,1887433410
37.1042,40.9300,`Amuda,Syria,1760247135
36.2936,37.0444,`Anadan,Syria,1760993442
28.4794,57.8414,`Anbarabad,Iran,1364601735
36.7414,43.8933,`Aqrah,Iraq,1368123730
36.8910,38.3536,`Ayn al `Arab,Syria,1760764004
36.2292,43.9936,`Aynkawah,Iraq,1368335955
23.2325,56.4973,`Ibri,Oman,1512077267
31.5031,31.8411,`Izbat al Burj,Egypt,1818379501
26.0906,43.9875,`Unayzah,Saudi Arabia,1682546519
33.4861,36.6011,`Utaybah,Syria,1760277356
43.3650,-8.4100,A Coruna,Spain,1724417375
13.3939,108.4408,A Yun Pa,Vietnam,1704945771
55.0444,9.4181,Aabenraa,Denmark,1208000017
50.7756,6.0836,Aachen,Germany,1276805572
47.5000,8.9000,Aadorf,Switzerland,1756022542
57.0500,9.9167,Aalborg,Denmark,1208789278
48.8333,10.1000,Aalen,Germany,1276757787
33.8000,35.6000,Aaley,Lebanon,1422055581
52.2667,4.7500,Aalsmeer,Netherlands,1528899853
50.9383,4.0392,Aalst,Belgium,1056695813
51.9333,6.5833,Aalten,Netherlands,1528326020
62.6000,25.7250,Aanekoski,Finland,1246710490
47.4000,8.0500,Aarau,Switzerland,1756722157
56.1572,10.2107,Aarhus,Denmark,1208841031
56.8032,9.5177,Aars,Denmark,1208910632
34.1794,36.4208,Aarsal,Lebanon,1422612862
50.9833,4.8333,Aarschot,Belgium,1056740173
51.1333,4.3833,Aartselaar,Belgium,1056119316
68.7097,-52.8694,Aasiaat,Greenland,1304194714
29.3606,51.0683,Ab Pakhsh,Iran,1364462555
5.1167,7.3667,Aba,Nigeria,1566262000
32.9039,101.6925,Aba,China,1156090115
38.0517,58.2100,Abadan,Turkmenistan,1795394170
-16.1000,-48.8000,Abadiania,Brazil,1076524654
31.0167,-2.7333,Abadla,Algeria,1012262770
31.5797,-7.3122,Abadou,Morocco,1504229584
-19.1583,-45.4522,Abaete,Brazil,1076413528
-1.7178,-48.8828,Abaetetuba,Brazil,1076974632
-26.0296,-55.9400,Abai,Paraguay,1600189926
-7.3500,-39.0500,Abaiara,Brazil,1076855645
8.4756,6.9433,Abaji,Nigeria,1566650592
6.3249,8.1137,Abakaliki,Nigeria,1566879878
53.7167,91.4667,Abakan,Russia,1643946203
22.8900,4.8472,Abalessa,Algeria,1012479386
-13.6333,-72.8833,Abancay,Peru,1604782074
10.2492,-85.0268,Abangaritos,Costa Rica,1188357414
45.3603,11.7900,Abano Terme,Italy,1380340471
38.2031,-1.4003,Abaran,Spain,1724553721
-8.7167,-39.1167,Abare,Brazil,1076490247
31.1267,53.2592,Abarkuh,Iran,1364624357
44.0167,144.2667,Abashiri,Japan,1392204790
7.3167,80.6667,Abasingammedda,Sri Lanka,1144237899
20.4500,-101.5170,Abasolo,Mexico,1484064616
24.0559,-98.3733,Abasolo,Mexico,1484491384
49.6311,72.8539,Abay,Kazakhstan,1398353856
43.2092,76.7603,Abay,Kazakhstan,1398792328
52.6481,90.0739,Abaza,Russia,1643885049
50.1058,1.8358,Abbeville,France,1250376759
29.9751,-92.1265,Abbeville,United States,1840014005
45.4000,8.9167,Abbiategrasso,Italy,1380022331
13.0767,77.5250,Abbigeri,India,1356908177
15.5862,75.7502,Abbigeri,India,1356709551
51.7010,-0.4160,Abbots Langley,United Kingdom,1826455551
49.0500,-122.3167,Abbotsford,Canada,1124808029
34.1558,73.2194,Abbottabad,Pakistan,1586788758
52.2700,4.9700,Abcoude,Netherlands,1528930356
30.5500,72.1328,Abdul Hakim,Pakistan,1586991157
53.6667,53.6333,Abdulino,Russia,1643685252
25.7683,87.5557,Abdullahnagar,India,1356951045
37.9458,68.8117,Abdurahmoni Jomi,Tajikistan,1762589864
13.8331,20.8347,Abeche,Chad,1148461151
5.7894,-75.4281,Abejorral,Colombia,1170508965
-26.5647,-52.3283,Abelardo Luz,Brazil,1076575845
6.7333,-3.4833,Abengourou,Côte d’Ivoire,1384295898
48.8000,11.8500,Abensberg,Germany,1276501504
7.1608,3.3483,Abeokuta,Nigeria,1566979497
51.7000,-3.4333,Aberaman,United Kingdom,1826702294
51.6968,-3.2240,Aberbargoed,United Kingdom,1826650581
51.7130,-3.4450,Aberdare,United Kingdom,1826427395
57.1500,-2.1100,Aberdeen,United Kingdom,1826324306
45.4649,-98.4686,Aberdeen,United States,1840002032
40.4165,-74.2249,Aberdeen,United States,1840081652
46.9757,-123.8094,Aberdeen,United States,1840018446
39.5151,-76.1733,Aberdeen,United States,1840005666
35.1350,-79.4326,Aberdeen,United States,1840015433
51.8240,-3.0167,Abergavenny,United Kingdom,1826362404
53.2800,-3.5800,Abergele,United Kingdom,1826468444
51.6167,-3.9500,Abertawe,United Kingdom,1826574888
51.7300,-3.1300,Abertillery,United Kingdom,1826675845
52.4140,-4.0810,Aberystwyth,United Kingdom,1826420477
18.2169,42.5053,Abha,Saudi Arabia,1682759151
36.1511,49.2244,Abhar,Iran,1364688687
26.3225,90.6853,Abhayapuri,India,1356069797
25.3499,87.1427,Abhia,India,1356693138
26.1740,86.6324,Abhwar,India,1356253810
30.4411,47.9725,Abi al Khasib,Iraq,1368259214
5.3167,-4.0333,Abidjan,Côte d’Ivoire,1384207980
35.8667,140.0333,Abiko,Japan,1392000342
32.4543,-99.7384,Abilene,United States,1840019476
2.7019,33.6600,Abim,Uganda,1800199589
51.6717,-1.2783,Abingdon,United Kingdom,1826918722
40.1108,-75.1146,Abington,United States,1840035369
42.1180,-70.9590,Abington,United States,1840053564
44.8667,38.1500,Abinsk,Russia,1643216828
9.4423,78.4399,Abiramam,India,1356724493
13.6231,39.0017,Abiy Adi,Ethiopia,1231200318
29.2861,30.8152,Abjij,Egypt,1818397315
30.3391,74.7879,Ablu,India,1356899653
27.2667,31.1500,Abnub,Egypt,1818739665
30.1334,74.2001,Abohar,India,1356846795
5.4667,-3.2000,Aboisso,Côte d’Ivoire,1384385857
7.1856,1.9881,Abomey,Benin,1204597697
6.4486,2.3556,Abomey-Calavi,Benin,1204016569
8.5833,39.8500,Abomsa,Ethiopia,1231331780
3.9833,13.1667,Abong Mbang,Cameroon,1120726386
47.1894,20.0097,Abony,Hungary,1348748527
9.4386,118.5481,Aborlan,Philippines,1608193671
5.3633,-1.9478,Aboso,Ghana,1288901641
36.4167,1.2000,Abou el Hassan,Algeria,1012585371
40.2739,44.6256,Abovyan,Armenia,1051509043
25.9350,49.6661,Abqaiq,Saudi Arabia,1682412526
13.4448,120.7260,Abra de Ilog,Philippines,1608871272
-22.7167,-65.7000,Abra Pampa,Argentina,1032997640
53.5080,-2.5880,Abram,United Kingdom,1826869753
31.9408,54.2736,Abrandabad-e Shahediyeh,Iran,1364301778
39.4633,-8.1975,Abrantes,Portugal,1620417746
-20.3008,-42.4778,Abre Campo,Brazil,1076902568
8.0000,-73.2000,Abrego,Colombia,1170272362
41.5167,1.9000,Abrera,Spain,1724786014
-7.9117,-34.9028,Abreu e Lima,Brazil,1076355835
22.2806,-80.5678,Abreus,Cuba,1192567991
32.5675,51.5733,Abrisham,Iran,1364088280
39.4229,-74.4944,Absecon,United States,1840003797
24.5925,72.7083,Abu,India,1356598126
30.9084,30.1485,Abu al Matamir,Egypt,1818329070
24.4667,54.3667,Abu Dhabi,United Arab Emirates,1784176710
31.7625,35.2658,Abu Dis,West Bank,1934018131
33.2919,44.0656,Abu Ghurayb,Iraq,1368635737
19.5433,33.3378,Abu Hamad,Sudan,1729554381
34.8450,40.6431,Abu Hardub,Syria,1760872653
29.1322,48.1261,Abu Hulayfah,Kuwait,1414456826
31.1006,30.3128,Abu Hummus,Egypt,1818221429
35.9358,40.0367,Abu Khashab,Syria,1760868010
31.3167,30.0667,Abu Qir,Egypt,1818093442
27.9333,30.8333,Abu Qurqas,Egypt,1818889126
30.9000,31.2347,Abu Sir Bana,Egypt,1818635025
30.5633,32.1155,Abu Suwayr,Egypt,1818806418
26.1183,32.0953,Abu Tisht,Egypt,1818097618
30.2415,31.4110,Abu Za`bal,Egypt,1818913485
14.7222,120.5354,Abucay,Philippines,1608999598
9.0667,7.4833,Abuja,Nigeria,1566342270
18.4441,121.4576,Abulug,Philippines,1608894919
-9.6954,-65.3597,Abuna,Brazil,1076632448
5.8500,-0.1833,Aburi,Ghana,1288664364
10.7458,125.0122,Abuyog,Philippines,1608485452
32.1806,48.2778,Abuzar-e Ghaffari,Iran,1364552962
36.0411,50.5306,Abyek,Iran,1364192974
31.8000,-7.1400,Ac-cahrij,Morocco,1504655221
3.9878,-73.7597,Acacias,Colombia,1170420071
-25.9100,-57.1100,Acahay,Paraguay,1600352357
-4.9469,-47.5050,Acailandia,Brazil,1076993685
-11.6667,-38.0167,Acajutiba,Brazil,1076094256
13.5900,-89.8336,Acajutla,El Salvador,1222402975
16.5533,-92.8069,Acala,Mexico,1484788928
37.5167,-5.9667,Acala del Rio,Spain,1724367182
20.0361,-100.7314,Acambaro,Mexico,1484524073
19.9539,-99.8431,Acambay,Mexico,1484667611
20.8133,-89.4524,Acanceh,Mexico,1484170180
8.5333,-77.2333,Acandi,Colombia,1170188476
15.2333,-92.7667,Acapetahua,Mexico,1484664781
16.8636,-99.8825,Acapulco de Juarez,Mexico,1484463183
-1.9608,-48.1969,Acara,Brazil,1076141011
-4.2242,-38.7083,Acarape,Brazil,1076431033
-2.8858,-40.1186,Acarau,Brazil,1076016462
-6.4600,-36.6410,Acari,Brazil,1076782658
9.5597,-69.2019,Acarigua,Venezuela,1862134462
37.8244,27.7467,Acarlar,Turkey,1792301446
-34.4667,-58.5167,Acasusso,Argentina,1032071091
37.0339,14.4942,Acate,Italy,1380824734
14.5544,-90.9439,Acatenango,Guatemala,1320527035
20.7803,-102.9100,Acatic,Mexico,1484373854
20.2333,-103.5333,Acatlan,Mexico,1484516807
20.1444,-98.4383,Acatlan,Mexico,1484652472
18.2086,-98.0575,Acatlan de Osorio,Mexico,1484340141
18.5333,-96.6000,Acatlan de Perez Figueroa,Mexico,1484695178
18.9817,-97.7822,Acatzingo,Mexico,1484022961
20.1667,-98.2000,Acaxochitlan,Mexico,1484005465
17.9422,-94.9103,Acayucan,Mexico,1484349924
38.6745,-77.0023,Accokeek,United States,1840005943
5.5500,-0.2000,Accra,Ghana,1288299415
53.7534,-2.3638,Accrington,United Kingdom,1826709919
40.9500,14.3667,Acerra,Italy,1380520117
1.8192,-75.8964,Acevedo,Colombia,1170946838
-16.0444,-68.6850,Achacachi,Bolivia,1068370700
7.7667,-68.2333,Achaguas,Venezuela,1862439541
24.0243,85.8306,Achaljamu,India,1356255420
16.6299,80.1213,Achampet,India,1356144571
8.9667,77.1431,Achankovil,India,1356144564
8.1700,77.3698,Acharipallam,India,1356217808
38.0833,23.7333,Acharnes,Greece,1300526257
17.0941,82.3099,Achchampeta,India,1356829299
10.6989,77.0150,Achchippatti,India,1356170278
48.9602,2.0684,Acheres,France,1250623309
48.6333,8.0667,Achern,Germany,1276045216
27.1800,77.7700,Achhnera,India,1356781878
8.5667,-74.5500,Achi,Colombia,1170684229
53.0653,9.0342,Achim,Germany,1276242263
56.2817,90.5039,Achinsk,Russia,1643890929
43.1892,45.2847,Achkhoy-Martan,Russia,1643219840
-16.5833,-68.1667,Achocalla,Bolivia,1068220398
13.0500,-86.5833,Achuapa,Nicaragua,1558765003
37.5556,15.1458,Aci Castello,Italy,1380669232
37.6000,15.1333,Aci Catena,Italy,1380362156
37.6000,15.1167,Aci Sant'Antonio,Italy,1380974532
38.5500,34.5167,Acigol,Turkey,1792587521
41.7833,12.3667,Acilia,Italy,1380864025
37.4250,29.3539,Acipayam,Turkey,1792192202
37.6167,15.1667,Acireale,Italy,1380128872
-12.8431,-74.5694,Acobamba,Peru,1604419379
53.9550,-1.1260,Acomb,United Kingdom,1826310349
1.3000,10.9333,Aconibe,Equatorial Guinea,1226173790
-6.1000,-39.4500,Acopiara,Brazil,1076661571
-24.5930,31.0970,Acornhoek,South Africa,1710315598
11.9667,-85.1667,Acoyapa,Nicaragua,1558571997
43.9457,12.4185,Acquaviva,San Marino,1674696011
40.9000,16.8500,Acquaviva delle Fonti,Italy,1380485261
44.6833,8.4667,Acqui Terme,Italy,1380674535
39.5000,16.3833,Acri,Italy,1380975284
51.5135,-0.2707,Acton,United Kingdom,1826793320
42.4843,-71.4378,Acton,United States,1840053471
43.6333,-80.0333,Acton,Canada,1124804037
19.5036,-96.6192,Actopan,Mexico,1484594634
20.2681,-98.9442,Actopan,Mexico,1484903562
-5.5769,-36.9089,Acu,Brazil,1076000524
-19.0667,-42.5333,Acucena,Brazil,1076910841
19.6833,-72.3167,Acul du Nord,Haiti,1332452359
41.7138,-70.9012,Acushnet,United States,1840131572
34.0566,-84.6716,Acworth,United States,1840013688
31.0338,28.4333,Ad Dab`ah,Egypt,1818525598
18.0502,30.9495,Ad Dabbah,Sudan,1729074461
13.6967,44.7308,Ad Dabyah,Yemen,1887145945
23.7081,-15.9456,Ad Dakhla,Morocco,1504999983
13.6957,44.7314,Ad Dali`,Yemen,1887607369
26.4333,50.1000,Ad Dammam,Saudi Arabia,1682452296
17.7167,42.2500,Ad Darb,Saudi Arabia,1682370751
37.0728,40.6519,Ad Darbasiyah,Syria,1760503745
33.4167,-7.5333,Ad Darwa,Morocco,1504000451
24.7333,46.5756,Ad Dir`iyah,Saudi Arabia,1682421969
26.2186,50.4756,Ad Diraz,Bahrain,1048063693
14.8833,49.8667,Ad Dis,Yemen,1887279052
31.9892,44.9247,Ad Diwaniyah,Iraq,1368864006
14.0000,32.3167,Ad Diwem,Sudan,1729364292
33.8389,44.2481,Ad Dujayl,Iraq,1368574619
34.0500,44.2000,Ad Dulu`iyah,Iraq,1368869426
34.8969,36.1346,Ad Duraykish,Syria,1760515031
7.8956,4.7094,Ada,Nigeria,1566487740
34.7662,-96.6681,Ada,United States,1840019191
45.8000,20.1333,Ada,Serbia,1688687750
35.7833,139.8000,Adachi,Japan,1392464568
39.2308,40.4781,Adakli,Turkey,1792013897
7.4500,2.5500,Adakplame,Benin,1204512448
23.1700,72.5800,Adalaj,India,1356655981
40.8578,29.1200,Adalar,Turkey,1792141367
25.2820,82.9563,Adalhat,India,1356993963
26.1910,86.0239,Adalpur,India,1356338843
12.0742,78.1237,Adamankottai,India,1356256995
-21.6847,-51.0733,Adamantina,Brazil,1076252044
7.8667,38.7000,Adami Tulu,Ethiopia,1231102446
31.4322,75.7148,Adampur,India,1356184220
40.7092,-80.0118,Adams,United States,1840149061
-25.0667,-130.1000,Adamstown,Pitcairn Islands,1612000000
37.0000,35.3213,Adana,Turkey,1792783772
57.0667,24.3333,Adazi,Latvia,1428843734
-12.3000,44.5000,Adda-Doueni,Comoros,1174212129
15.8167,79.9833,Addanki,India,1356837121
9.0300,38.7400,Addis Ababa,Ethiopia,1231824991
41.9313,-88.0085,Addison,United States,1840010171
32.9590,-96.8355,Addison,United States,1840022057
51.3695,-0.4901,Addlestone,United Kingdom,1826253359
28.1167,-16.7167,Adeje,Spain,1724394126
36.6833,4.6667,Adekar Kebouche,Algeria,1012937154
53.8489,-1.5849,Adel,United Kingdom,1826917092
-34.9275,138.6000,Adelaide,Australia,1036538171
-32.7078,26.2956,Adelaide,South Africa,1710819752
-13.2378,131.1047,Adelaide River,Australia,1036136750
34.5814,-117.4397,Adelanto,United States,1840019117
41.0000,16.8667,Adelfia,Italy,1380602837
39.0017,-76.9649,Adelphi,United States,1840005944
49.7167,10.9000,Adelsdorf,Germany,1276049542
12.8000,45.0333,Aden,Yemen,1887867886
53.2833,10.4500,Adendorf,Germany,1276724557
23.5589,70.9833,Adesar,India,1356038279
11.2667,37.4833,Adet,Ethiopia,1231929103
25.7347,51.5475,Adh Dhakhirah,Qatar,1634525121
14.8333,39.3667,Adi Keyh,Eritrea,1232384326
10.4236,42.2333,Adigala,Ethiopia,1231021572
12.1459,78.0946,Adigappadi,India,1356733894
11.3357,76.6971,Adigaratti,India,1356123782
16.4402,79.6235,Adigoppula,India,1356850226
14.2667,39.4500,Adigrat,Ethiopia,1231492773
19.6667,78.5333,Adilabad,India,1356085840
38.8058,42.7469,Adilcevaz,Turkey,1792411490
9.0333,38.4000,Adis `Alem,Ethiopia,1231598304
12.1167,37.7833,Adis Zemen,Ethiopia,1231619970
13.9131,76.6619,Adivala,India,1356049786
10.7626,79.6775,Adiyakkamangalam,India,1356175056
37.7639,38.2778,Adiyaman,Turkey,1792686663
7.0618,1.8368,Adjahome,Benin,1204465355
44.1333,-79.9333,Adjala-Tosorontio,Canada,1124000498
7.0000,2.6167,Adjaouere,Benin,1204225827
6.5333,2.6667,Adjarra,Benin,1204832299
6.5333,2.2667,Adjarra,Benin,1204162479
7.0333,1.9833,Adjido,Benin,1204261939
6.7000,2.4667,Adjohon,Benin,1204412228
46.1000,27.1797,Adjud,Romania,1642892790
3.3772,31.7906,Adjumani,Uganda,1800855823
47.3167,8.5333,Adliswil,Switzerland,1756221733
7.6211,5.2214,Ado-Ekiti,Nigeria,1566196391
6.6333,1.6667,Adohoun,Benin,1204360441
-38.0333,-60.0833,Adolfo Gonzales Chaves,Argentina,1032667376
-8.2500,123.1500,Adonara,Indonesia,1360760882
15.6279,77.2749,Adoni,India,1356357749
36.7478,-3.0161,Adra,Spain,1724071055
23.5000,86.6700,Adra,India,1356918249
37.6667,14.8333,Adrano,Italy,1380203916
27.8667,-0.2833,Adrar,Algeria,1012462113
40.6486,69.9856,Adrasmon,Tajikistan,1762711403
13.4667,22.2000,Adre,Chad,1148372250
45.0500,12.0500,Adria,Italy,1380910667
41.8994,-84.0447,Adrian,United States,1840003226
-34.8000,-58.3833,Adrogue,Argentina,1032827397
9.7954,76.8456,Adukam,India,1356162630
2.0194,32.7200,Aduku,Uganda,1800302255
12.5583,75.1357,Aduru,India,1356881059
-10.5333,-38.1167,Adustina,Brazil,1076245187
16.6631,79.5139,Advi Devalpalli,India,1356052912
14.1667,38.9000,Adwa,Ethiopia,1231086312
53.5677,-1.1931,Adwick le Street,United Kingdom,1826413996
44.8832,39.1902,Adygeysk,Russia,1643365200
6.1667,-3.9833,Adzope,Côte d’Ivoire,1384370507
52.0494,9.2653,Aerzen,Germany,1276826554
47.4667,7.5833,Aesch,Switzerland,1756884116
6.4939,1.6339,Afanyangan,Togo,1768926605
9.4667,41.0000,Afdem,Ethiopia,1231882057
-13.8019,-171.8217,Afega,Samoa,1882284139
47.2833,8.4500,Affoltern am Albis,Switzerland,1756025824
38.5499,-90.3264,Affton,United States,1840006124
2.1413,45.1169,Afgooye,Somalia,1706930457
36.7676,3.7029,Afir,Algeria,1012675026
6.1468,1.1799,Aflao,Ghana,1288563374
34.1089,2.1019,Aflou,Algeria,1012904117
0.5156,42.0733,Afmadow,Somalia,1706654469
-7.7508,-37.6389,Afogados da Ingazeira,Brazil,1076271045
-5.5000,-36.5167,Afonso Bezerra,Brazil,1076653188
-20.0739,-41.1239,Afonso Claudio,Brazil,1076232395
32.2167,-6.5000,Afourar,Morocco,1504710376
40.9167,14.3167,Afragola,Italy,1380524178
-8.5150,-41.0050,Afranio,Brazil,1076000646
38.2464,36.9186,Afsin,Turkey,1792739931
-0.1569,-50.3869,Afua,Brazil,1076124321
32.6064,35.2881,Afula,Israel,1376077681
44.5250,26.2522,Afumati,Romania,1642945778
38.7578,30.5386,Afyonkarahisar,Turkey,1792855788
25.9319,86.2293,Afzala,India,1356634784
17.2011,76.3611,Afzalpur,India,1356045507
16.7123,81.2732,Agadallanka,India,1356076247
16.9959,7.9828,Agadez,Niger,1562789067
14.8190,75.4690,Agadi,India,1356106376
30.4333,-9.6000,Agadir,Morocco,1504116858
30.2167,-7.8000,Agadir Melloul,Morocco,1504880181
2.9847,33.3306,Agago,Uganda,1800321499
6.7333,1.7667,Agame,Benin,1204183664
35.9176,103.8501,Agan,China,1156933148
37.8344,139.2260,Agano,Japan,1392003064
71.4504,89.2500,Agapa,Russia,1643009087
23.7118,76.0157,Agar,India,1356322371
10.4433,77.9485,Agaram,India,1356245534
34.7414,10.5280,Agareb,Tunisia,1788531195
7.8558,36.5858,Agaro,Ethiopia,1231182793
25.1957,87.0423,Agarpur,India,1356918290
23.8314,91.2869,Agartala,India,1356148992
6.4000,1.9000,Agatogba,Benin,1204332185
42.0657,-72.6526,Agawam,United States,1840031157
7.0667,1.9667,Agbangnizoun,Benin,1204553139
6.3667,2.5167,Agblangandan,Benin,1204834123
5.9333,-4.2167,Agboville,Côte d’Ivoire,1384823872
40.0528,47.4614,Agcabadi,Azerbaijan,1031860893
12.0700,121.9300,Agcogon,Philippines,1608922039
39.9833,46.9167,Agdam,Azerbaijan,1031176858
40.9053,45.5564,Agdam,Azerbaijan,1031834023
13.8758,121.9122,Agdangan,Philippines,1608783470
40.6500,47.4761,Agdas,Azerbaijan,1031916654
43.3108,3.4758,Agde,France,1250539086
30.6978,-6.4497,Agdz,Morocco,1504481123
6.6219,3.3258,Agege,Nigeria,1566564887
44.2049,0.6212,Agen,France,1250059626
35.9774,139.5932,Ageoshimo,Japan,1392046664
34.9394,-2.1272,Aghbal,Morocco,1504000927
32.4833,-5.6333,Aghbala,Morocco,1504000722
33.9341,-4.7381,Aghbalou Aqourar,Morocco,1504995287
31.6767,-5.2976,Aghbalou n'Kerdous,Morocco,1504201813
38.0117,23.8200,Agia Paraskevi,Greece,1300253630
38.0000,23.6500,Agia Varvara,Greece,1300465012
55.9000,53.9333,Agidel,Russia,1643864231
16.6817,80.7839,Aginiparru,India,1356998058
51.1031,114.5228,Aginskoye,Russia,1643514234
38.0267,23.7183,Agioi Anargyroi,Greece,1300220121
34.7086,33.0503,Agios Athanasios,Cyprus,1196729508
37.9333,23.7333,Agios Dimitrios,Greece,1300159419
37.9667,23.6667,Agios Ioannis Rentis,Greece,1300655205
35.1833,25.7167,Agios Nikolaos,Greece,1300945111
16.6833,80.6500,Agiripalle,India,1356687645
37.6494,30.5339,Aglasun,Turkey,1792900416
43.9000,11.0000,Agliana,Italy,1380301784
16.4889,121.5874,Aglipay,Philippines,1608815754
16.1161,119.8027,Agno,Philippines,1608574609
6.8000,-1.0833,Agogo,Ghana,1288687736
13.9334,120.9285,Agoncillo,Philippines,1608191192
16.3220,120.3647,Agoo,Philippines,1608343645
6.2500,1.6833,Agoue,Benin,1204642749
7.5667,1.7000,Agouna,Benin,1204331167
34.1510,-118.7609,Agoura Hills,United States,1840019221
33.6333,-5.5833,Agourai,Morocco,1504734608
27.1800,78.0200,Agra,India,1356187395
22.6761,-81.1156,Agramonte,Cuba,1192726778
45.5833,9.3500,Agrate Brianza,Italy,1380660199
-8.4500,-35.9500,Agrestina,Brazil,1076512287
39.7186,43.0508,Agri,Turkey,1792385654
37.3167,13.5833,Agrigento,Italy,1380721319
38.6167,21.4000,Agrinio,Greece,1300351677
40.3500,14.9833,Agropoli,Italy,1380689774
56.5219,52.9975,Agryz,Russia,1643220768
41.1189,45.4539,Agstafa,Azerbaijan,1031889683
40.5692,48.4008,Agsu,Azerbaijan,1031748204
-6.7908,-50.4669,Agua Azul do Norte,Brazil,1076912396
14.4833,-89.6494,Agua Blanca,Guatemala,1320861023
20.3500,-98.3500,Agua Blanca Iturbide,Mexico,1484459690
-17.9958,-42.3889,Agua Boa,Brazil,1076580092
-9.2608,-37.9361,Agua Branca,Brazil,1076362239
-5.8900,-42.6378,Agua Branca,Brazil,1076724006
-7.5119,-37.6408,Agua Branca,Brazil,1076930079
-20.4478,-52.8778,Agua Clara,Brazil,1076035194
4.3781,-74.6739,Agua de Dios,Colombia,1170261758
-11.8669,-38.7669,Agua Fria,Brazil,1076969631
-8.7069,-35.5308,Agua Preta,Brazil,1076495726
31.3258,-109.5489,Agua Prieta,Mexico,1484381848
15.3500,-91.3167,Aguacatan,Guatemala,1320252531
8.3167,-73.6333,Aguachica,Colombia,1170152591
22.3847,-80.8461,Aguada de Pasajeros,Cuba,1192172785
5.6167,-75.4667,Aguadas,Colombia,1170536116
18.4382,-67.1537,Aguadilla,Puerto Rico,1630035605
8.2400,-80.5400,Aguadulce,Panama,1591589017
36.7642,-2.6147,Aguadulce,Spain,1724436788
-22.0603,-46.9736,Aguai,Brazil,1076299565
38.7700,-9.2988,Agualva,Portugal,1620936507
-9.1167,-37.1167,Aguas Belas,Brazil,1076330876
-22.4767,-46.6333,Aguas de Lindoia,Brazil,1076621560
-17.0819,-40.9358,Aguas Formosas,Brazil,1076043870
41.2090,-8.5890,Aguas Santas,Portugal,1620762299
-15.7500,-41.4667,Aguas Vermelhas,Brazil,1076605464
10.4223,-84.3554,Aguas Zarcas,Costa Rica,1188992281
9.4249,-63.7308,Aguasay,Venezuela,1862003602
21.8760,-102.2960,Aguascalientes,Mexico,1484666646
5.1731,-72.5547,Aguazul,Colombia,1170359050
-29.6453,-53.2400,Agudo,Brazil,1076713609
-22.4739,-48.9836,Agudos,Brazil,1076000779
-25.9833,-49.3333,Agudos do Sul,Brazil,1076267652
40.5744,-8.4481,Agueda,Portugal,1620290042
19.4650,0.8560,Aguelhok,Mali,1466967655
33.1500,-5.8333,Aguelmous,Morocco,1504241696
34.9333,136.9167,Agui,Japan,1392003310
-18.9828,-40.7400,Aguia Branca,Brazil,1076311208
15.8899,120.2379,Aguilar,Philippines,1608688044
37.5167,-4.6500,Aguilar,Spain,1724391215
-27.4333,-65.6167,Aguilares,Argentina,1032907476
13.9500,-89.1833,Aguilares,El Salvador,1222041807
37.4042,-1.5819,Aguilas,Spain,1724197717
16.9789,121.3272,Aguinaldo,Philippines,1608419129
10.0367,-73.2369,Agustin Codazzi,Colombia,1170077466
11.1520,120.9396,Agutaya,Philippines,1608681129
38.4797,47.0669,Ahar,Iran,1364602437
52.0667,7.0000,Ahaus,Germany,1276411347
7.1164,0.3242,Ahenkro,Ghana,1288684117
40.9365,78.4023,Aheqi,China,1156243084
33.8184,-4.4106,Ahermoumou,Morocco,1504332158
34.9514,-2.1025,Ahfir,Morocco,1504027251
5.4000,-3.3833,Ahigbe Koffikro,Côte d’Ivoire,1384105456
26.5091,84.7999,Ahirauliya,India,1356049208
24.9192,87.1054,Ahiro,India,1356496570
33.2833,-7.2000,Ahlaf,Morocco,1504239196
38.7528,42.4944,Ahlat,Turkey,1792335913
51.7633,7.8911,Ahlen,Germany,1276843072
25.3019,87.7938,Ahmadabad,India,1356352188
40.3781,49.9619,Ahmadli,Azerbaijan,1031512571
19.0800,74.7300,Ahmadnagar,India,1356972679
18.7000,76.9333,Ahmadpur,India,1356151690
23.8365,87.6912,Ahmadpur,India,1356692177
29.1439,71.2592,Ahmadpur East,Pakistan,1586824484
36.4000,6.1167,Ahmed Rachedi,Algeria,1012767031
23.0225,72.5714,Ahmedabad,India,1356304381
36.4781,2.5639,Ahmer el 'Ain,Algeria,1012730539
38.5183,27.9386,Ahmetli,Turkey,1792093004
7.0333,1.9167,Ahogbeya,Benin,1204793788
25.3670,72.7830,Ahor,India,1356319779
28.8833,51.2750,Ahram,Iran,1364866540
53.6747,10.2411,Ahrensburg,Germany,1276744963
52.5758,13.5764,Ahrensfelde,Germany,1276671758
13.9167,-89.8500,Ahuachapan,El Salvador,1222480039
20.6167,-103.8667,Ahualulco de Mercado,Mexico,1484137273
21.4379,-157.8404,Ahuimanu,United States,1840029468
30.6186,-106.5122,Ahumada,Mexico,1484004336
55.9167,14.2833,Ahus,Sweden,1752365263
31.3047,48.6783,Ahvaz,Iran,1364350188
20.7500,73.6833,Ahwa,India,1356037120
36.2653,68.0167,Aibak,Afghanistan,1004564619
16.2231,-3.2450,Aibongo,Mali,1466596375
18.1398,-66.2659,Aibonito,Puerto Rico,1630035609
48.6228,9.2372,Aich,Germany,1276245097
48.4500,11.1333,Aichach,Germany,1276090074
48.6792,8.8969,Aidlingen,Germany,1276002867
21.3865,-157.9232,Aiea,United States,1840029469
37.9920,23.6780,Aigaleo,Greece,1300067899
38.2506,22.0811,Aigio,Greece,1300238679
46.3167,6.9667,Aigle,Switzerland,1756593148
-34.2000,-54.7500,Aigua,Uruguay,1858068520
43.5675,4.1933,Aigues-Mortes,France,1250061893
24.4514,100.1273,Aihua,China,1156317956
10.0002,76.4550,Aikaranad,India,1356318695
33.5303,-81.7271,Aiken,United States,1840013722
43.9080,81.2777,Ailan Mubage,China,1156279608
-8.7281,125.5664,Aileu,Timor-Leste,1626766880
-19.4958,-41.0639,Aimores,Brazil,1076798379
34.4833,-4.7000,Ain Aicha,Morocco,1504818592
35.7833,7.3833,Ain Beida,Algeria,1012021090
31.5850,-8.6080,Ain Beida,Morocco,1504673651
36.2967,3.6700,Ain Bessem,Algeria,1012193122
33.8833,-5.0333,Ain Cheggag,Morocco,1504540865
36.2652,1.9703,Ain Defla,Algeria,1012656497
34.5990,-5.5488,Ain Dfali,Morocco,1504618863
33.8111,-6.7922,Ain El Aouda,Morocco,1504400263
35.8167,-0.2833,Ain el Bya,Algeria,1012529219
35.0581,0.8833,Ain el Hadid,Algeria,1012173360
36.3333,3.8000,Ain el Hadjar,Algeria,1012545954
30.4000,-8.8833,Ain el Mediour,Morocco,1504516108
35.9667,6.8667,Ain Fakroun,Algeria,1012447723
35.4333,3.5833,Ain Feka,Algeria,1012964896
33.6372,-7.4483,Ain Harrouda,Morocco,1504718611
34.0333,-5.8000,Ain Jemaa,Morocco,1504158964
34.1500,-4.8314,Ain Kansara,Morocco,1504724133
34.0071,-5.6182,Ain Karma,Morocco,1504336348
36.7483,6.4325,Ain Kechera,Algeria,1012670696
35.9167,6.7000,Ain Kercha,Algeria,1012437320
36.1569,2.4042,Ain Lechiakh,Algeria,1012316027
34.1667,-4.5000,Ain Legdah,Morocco,1504429679
36.0361,6.5708,Ain M'Lila,Algeria,1012438002
34.5000,-4.5500,Ain Mediouna,Morocco,1504603767
35.8000,0.0500,Ain Nouissy,Algeria,1012768863
35.9167,5.3000,Ain Oulmene,Algeria,1012233825
35.4489,2.9044,Ain Oussera,Algeria,1012469007
32.7500,-0.5833,Ain Sefra,Algeria,1012884513
33.9333,-5.2167,Ain Taoujdat,Morocco,1504497923
36.7917,3.2889,Ain Taya,Algeria,1012199705
35.9947,0.2956,Ain Tedeles,Algeria,1012889794
35.3000,-1.1333,Ain Temouchent,Algeria,1012763655
35.3833,5.9000,Ain Touta,Algeria,1012215632
35.0500,-1.3667,Ain Youcef,Algeria,1012281811
36.5500,3.8944,Ain Zaouia,Algeria,1012695288
34.1000,-6.3500,Ain Zohra,Morocco,1504551981
34.6600,-3.5300,Ain Zora,Morocco,1504442402
32.9667,132.5833,Ainan,Japan,1392003348
16.4800,74.7800,Ainapur,India,1356401696
-8.9833,125.5000,Ainaro,Timor-Leste,1626118494
36.7833,8.7000,Aine Draham,Tunisia,1788027300
47.8136,12.9428,Ainring,Germany,1276077892
53.6021,-3.0405,Ainsdale,United Kingdom,1826404186
34.8000,134.4667,Aioi,Japan,1392132001
16.6667,-9.6167,Aioun,Mauritania,1478255260
3.2167,-75.2333,Aipe,Colombia,1170334427
-18.1667,-65.1667,Aiquile,Bolivia,1068121487
31.7283,130.6278,Aira,Japan,1392003374
51.2917,-114.0144,Airdrie,Canada,1124990202
55.8600,-3.9800,Airdrie,United Kingdom,1826889162
50.6400,2.4000,Aire-sur-la-Lys,France,1250126430
1.4333,124.9833,Airmadidi,Indonesia,1360792086
41.0992,-74.0989,Airmont,United States,1840004991
47.6459,-117.5792,Airway Heights,United States,1840018399
35.1528,136.7282,Aisai,Japan,1392254584
35.1667,136.2167,Aisho,Japan,1392003056
30.1765,-9.4886,Ait Ali,Morocco,1504009062
31.6345,-7.6440,Ait Ben Daoudi,Morocco,1504718613
35.1056,-3.8503,Ait Bouchta,Morocco,1504367001
31.7318,-7.0876,Ait Bousarane,Morocco,1504791291
33.8167,-5.2749,Ait Bouziyane,Morocco,1504248874
31.5058,-7.7161,Ait Faska,Morocco,1504886930
31.7786,-5.4555,Ait Hani,Morocco,1504963024
32.6667,-4.9556,Ait I'yach,Morocco,1504002583
33.6690,-6.1376,Ait Ikkou,Morocco,1504000515
31.8514,-6.9658,Ait Majdane,Morocco,1504617199
30.3342,-9.4972,Ait Melloul,Morocco,1504134516
32.7128,-5.8042,Ait Ouaoumana,Morocco,1504002343
31.5644,-7.6628,Ait Ourir,Morocco,1504763448
31.4800,-6.9400,Ait Tamlil,Morocco,1504250838
33.7333,-5.5833,Ait Yaazem,Morocco,1504697698
36.5811,4.3303,Ait Yaich,Algeria,1012677951
30.5063,-8.7931,Ait Yazza,Morocco,1504675685
31.9833,-5.7833,Ait Youssef Ou Ali,Morocco,1504087117
-6.6333,-40.1167,Aiuaba,Brazil,1076600534
46.3122,23.7292,Aiud,Romania,1642981181
11.2161,79.5392,Aivanallur,India,1356245724
43.5263,5.4454,Aix-en-Provence,France,1250001687
45.6886,5.9150,Aix-les-Bains,France,1250456565
10.2500,76.4667,Aiyampuzha,India,1356101977
9.7158,77.0333,Aiyappan Kovil,India,1356231118
7.9833,6.0000,Aiyetoro Gbede,Nigeria,1566150800
5.7504,8.9833,Aiyomojok,Cameroon,1120658014
35.5289,139.3217,Aizawa,Japan,1392673347
23.7272,92.7178,Aizawl,India,1356342768
46.7400,-1.6083,Aizenay,France,1250153620
56.6042,25.2539,Aizkraukle,Latvia,1428407271
37.5615,139.8216,Aizubange,Japan,1392003207
34.1266,134.4951,Aizumi,Japan,1392003339
37.4599,139.8411,Aizumisato,Japan,1392003414
37.4948,139.9298,Aizuwakamatsu,Japan,1392003083
31.4903,-4.4014,Aj Jourf,Morocco,1504982069
30.9414,31.2942,Aja,Egypt,1818731296
41.9267,8.7369,Ajaccio,France,1250622666
20.0833,-99.1167,Ajacuba,Mexico,1484132188
24.8988,80.2592,Ajaigarh,India,1356098210
34.3316,74.6801,Ajas,India,1356098164
43.8583,-79.0364,Ajax,Canada,1124382916
30.7556,20.2253,Ajdabiya,Libya,1434401280
45.8861,13.9097,Ajdovscina,Slovenia,1705580792
20.3000,-103.2833,Ajijic,Mexico,1484699000
33.7167,10.7500,Ajim,Tunisia,1788666202
13.7279,76.0068,Ajjampur,India,1356451205
12.0376,77.8138,Ajjanahalli,India,1356313296
12.0457,77.3532,Ajjipuram,India,1356862548
47.1006,17.5522,Ajka,Hungary,1348671384
26.4499,74.6399,Ajmer,India,1356058258
31.8400,74.7600,Ajnala,India,1356432062
26.7992,82.2044,Ajodhya,India,1356623948
11.1725,123.0196,Ajuy,Philippines,1608027727
51.1833,90.6000,Ak-Dovurak,Russia,1643785448
42.8000,74.1000,Ak-Suu,Kyrgyzstan,1417410777
15.5500,37.8833,Ak'ordat,Eritrea,1232800240
43.5500,142.0500,Akabira,Japan,1392691701
34.7553,134.0189,Akaiwa,Japan,1392003260
13.4852,77.4621,Akalapura,India,1356618301
30.8019,75.8582,Akalgarh,India,1356193315
11.1000,76.3167,Akambadam,India,1356079112
16.4141,81.6367,Akanavaritota,India,1356311836
6.5000,2.3667,Akassato,Benin,1204097389
17.5898,103.9859,Akat Amnuai,Thailand,1764592273
38.0500,140.1833,Akayu,Japan,1392977768
26.4333,82.5403,Akbarpur,India,1356710855
24.6351,83.9642,Akbarpur,India,1356080609
36.8500,36.5167,Akbez,Turkey,1792364545
36.4667,4.5333,Akbou,Algeria,1012950888
41.0167,39.5500,Akcaabat,Turkey,1792536331
38.3450,37.9686,Akcadag,Turkey,1792886616
36.7108,38.9478,Akcakale,Turkey,1792050087
41.0878,31.1244,Akcakoca,Turkey,1792736613
39.6658,35.8836,Akdagmadeni,Turkey,1792201700
42.0500,59.4000,Akdepe,Turkmenistan,1795536165
59.4833,18.3000,Akersberga,Sweden,1752878685
39.1349,75.9337,Aketao,China,1156561563
2.7333,23.7500,Aketi,Congo (Kinshasa),1180273302
41.6389,42.9861,Akhaltsikhe,Georgia,1268352935
38.9239,27.8400,Akhisar,Turkey,1792301869
26.5667,31.7500,Akhmim,Egypt,1818295057
32.8700,74.7300,Akhnur,India,1356433902
48.2833,46.1667,Akhtubinsk,Russia,1643207712
41.4647,47.7400,Akhty,Russia,1643631394
33.5000,133.9000,Aki,Japan,1392875978
20.2656,-89.3478,Akil,Mexico,1484515773
5.8940,-1.0127,Akim Swedru,Ghana,1288676050
35.7289,139.2941,Akiruno,Japan,1392270849
35.7057,139.3535,Akishima,Japan,1392041019
39.7200,140.1026,Akita,Japan,1392129688
34.6631,132.7064,Akitakata,Japan,1392003327
16.5823,81.3811,Akividu,India,1356405611
19.7500,-14.3833,Akjoujt,Mauritania,1478247793
10.8167,76.6500,Akkattettar,India,1356951077
40.7931,37.0164,Akkus,Turkey,1792320002
8.1684,2.2320,Aklanpa,Benin,1204854535
24.4200,76.5700,Aklera,India,1356575696
34.9167,-2.4333,Aklim,Morocco,1504687369
16.6000,81.3833,Aklvidu,India,1356049380
20.7000,77.0000,Akola,India,1356089496
27.0656,77.8808,Akola,India,1356019752
3.7667,12.2500,Akonolinga,Cameroon,1120103788
34.0006,72.1217,Akora,Pakistan,1586486842
26.4721,78.7989,Akora,India,1356169043
21.1000,77.0600,Akot,India,1356644864
35.8714,10.5697,Akouda,Tunisia,1788415117
8.4500,1.8833,Akpassi,Benin,1204094346
41.0798,-81.5219,Akron,United States,1840000791
5.9742,-0.0881,Akropong,Ghana,1288823605
38.3742,34.0289,Aksaray,Turkey,1792650390
47.2500,39.8667,Aksay,Russia,1643659025
51.1678,52.9950,Aksay,Kazakhstan,1398621920
43.3667,46.4333,Aksay,Russia,1643918387
38.3575,31.4164,Aksehir,Turkey,1792359338
37.0486,31.7900,Akseki,Turkey,1792149428
41.1850,80.2904,Aksu,China,1156436913
36.9500,30.8500,Aksu,Turkey,1792000876
14.1208,38.7278,Aksum,Ethiopia,1231573651
36.7000,36.4833,Aktepe,Turkey,1792000013
39.1064,39.5472,Aktuluk,Turkey,1792981211
32.0167,130.2167,Akune,Japan,1392003418
7.3650,80.6172,Akurana,Sri Lanka,1144063686
7.2500,5.1950,Akure,Nigeria,1566568277
65.6833,-18.1000,Akureyri,Iceland,1352098424
6.0500,-0.8000,Akwatia,Ghana,1288226088
40.7444,43.6250,Akyaka,Turkey,1792979414
40.6833,30.6253,Akyazi,Turkey,1792667046
40.1333,33.0833,Akyurt,Turkey,1792155974
31.8347,-7.3125,Al 'Attawia,Morocco,1504496327
31.0959,29.7604,Al `Ajami,Egypt,1818001525
30.8333,28.9500,Al `Alamayn,Egypt,1818237095
37.0925,43.4872,Al `Amadiyah,Iraq,1368510045
31.8333,47.1500,Al `Amarah,Iraq,1368336235
23.5242,58.4989,Al `Amirat,Oman,1512675854
29.5319,35.0056,Al `Aqabah,Jordan,1400618058
20.2685,41.6493,Al `Aqiq,Saudi Arabia,1682354121
31.1249,33.8006,Al `Arish,Egypt,1818291145
34.9203,40.5594,Al `Asharah,Syria,1760227736
30.3065,31.7415,Al `Ashir min Ramadan,Egypt,1818297014
26.5833,49.9833,Al `Awwamiyah,Saudi Arabia,1682093940
17.2370,42.9390,Al `Aydabi,Saudi Arabia,1682495088
24.2075,55.7447,Al `Ayn,United Arab Emirates,1784674685
29.6167,31.2500,Al `Ayyat,Egypt,1818970006
32.9083,45.0667,Al `Aziziyah,Iraq,1368091168
32.5308,13.0211,Al `Aziziyah,Libya,1434450111
30.2558,19.1994,Al `Uqaylah,Libya,1434822941
35.0029,-3.0311,Al Aaroui,Morocco,1504779155
32.7867,21.9978,Al Abraq,Libya,1434086011
16.7097,42.9550,Al Ahad al Masarihah,Saudi Arabia,1682620364
29.0769,48.0838,Al Ahmadi,Kuwait,1414024487
36.1389,36.8300,Al Atarib,Syria,1760645780
26.5583,49.9503,Al Awjam,Saudi Arabia,1682207771
26.9925,31.4156,Al Badari,Egypt,1818459800
29.8520,31.2760,Al Badrashayn,Egypt,1818909949
20.0125,41.4653,Al Bahah,Saudi Arabia,1682121855
30.4333,31.0569,Al Bajur,Egypt,1818896076
26.2333,32.0000,Al Balyana,Egypt,1818610123
31.7600,25.0750,Al Bardiyah,Libya,1434335416
30.5150,47.8100,Al Basrah,Iraq,1368714645
32.7664,21.7417,Al Bayda',Libya,1434263017
13.9790,45.5740,Al Bayda',Yemen,1887788283
32.5050,-7.1927,Al Brouj,Morocco,1504448147
24.2592,55.7839,Al Buraymi,Oman,1512959921
33.4264,36.3208,Al Buwaydah,Syria,1760211674
33.3500,43.7833,Al Fallujah,Iraq,1368081888
28.8227,30.8992,Al Fashn,Egypt,1818503615
29.9758,48.4722,Al Faw,Iraq,1368130668
30.6167,-8.2167,Al Fayd,Morocco,1504770478
29.3084,30.8441,Al Fayyum,Egypt,1818281002
32.5000,-6.5333,Al Fqih Ben Calah,Morocco,1504975687
32.0167,35.7667,Al Fuhays,Jordan,1400712553
25.1222,56.3344,Al Fujayrah,United Arab Emirates,1784909196
27.2578,33.8117,Al Ghardaqah,Egypt,1818666245
26.0267,44.9608,Al Ghat,Saudi Arabia,1682563733
16.2106,52.1711,Al Ghayzah,Yemen,1887000479
33.3986,36.4531,Al Ghizlaniyah,Syria,1760034578
25.7900,45.3800,Al Ha'ir,Saudi Arabia,1682572501
33.4640,36.3044,Al Hajar al Aswad,Syria,1760587307
33.5581,36.2222,Al Hamah,Syria,1760765828
26.1497,50.4653,Al Hamalah,Bahrain,1048095735
36.2697,43.3775,Al Hamdaniyah,Iraq,1368523059
33.1868,-5.6225,Al Hammam,Morocco,1504972770
31.7339,45.0086,Al Hamzah,Iraq,1368300397
33.0500,36.0000,Al Harah,Syria,1760419453
36.5117,40.7422,Al Hasakah,Syria,1760476337
32.3664,44.6581,Al Hashimiyah,Iraq,1368037848
21.4411,40.4975,Al Hawiyah,Saudi Arabia,1682803387
32.1667,46.0500,Al Hayy,Iraq,1368988553
16.1642,44.7767,Al Hazm,Yemen,1887549671
28.7736,30.9228,Al Hibah,Egypt,1818176638
23.4895,46.7564,Al Hillah,Saudi Arabia,1682494753
32.4775,44.4314,Al Hillah,Iraq,1368916692
32.5442,44.2197,Al Hindiyah,Iraq,1368398173
32.4583,35.8583,Al Hisn,Jordan,1400378169
35.2472,-3.9322,Al Hoceima,Morocco,1504990575
14.8022,42.9511,Al Hudaydah,Yemen,1887984890
25.3833,49.5833,Al Hufuf,Saudi Arabia,1682958157
30.8617,31.9181,Al Husayniyah,Egypt,1818070991
30.9549,46.9751,Al Jabayish,Iraq,1368506768
14.7040,43.5990,Al Jabin,Yemen,1887910100
29.7425,24.5169,Al Jaghbub,Libya,1434128425
29.3500,47.6833,Al Jahra',Kuwait,1414182001
31.1806,31.8653,Al Jammaliyah,Egypt,1818993341
24.2167,23.3000,Al Jawf,Libya,1434996940
25.7089,55.7972,Al Jazirah al Hamra',United Arab Emirates,1784137216
31.6833,35.9500,Al Jizah,Jordan,1400797654
27.0000,49.6544,Al Jubayl,Saudi Arabia,1682564079
32.8528,12.0611,Al Jumayl,Libya,1434494324
25.6208,51.0819,Al Jumayliyah,Qatar,1634232373
31.9167,35.9500,Al Juwayyidah,Jordan,1400206772
31.1833,35.7000,Al Karak,Jordan,1400073941
32.6872,36.3508,Al Karak,Syria,1760662901
25.7186,32.6586,Al Karnak,Egypt,1818862945
30.1601,31.3133,Al Khankah,Egypt,1818549245
24.1483,47.3050,Al Kharj,Saudi Arabia,1682947408
25.4400,30.5500,Al Kharjah,Egypt,1818872500
25.6900,51.5100,Al Khawr,Qatar,1634786937
33.8167,-6.0667,Al Khmissat,Morocco,1504079907
26.2833,50.2000,Al Khubar,Saudi Arabia,1682059414
32.6497,14.2644,Al Khums,Libya,1434172839
33.3500,36.2333,Al Kiswah,Syria,1760910325
32.0300,44.4000,Al Kufah,Iraq,1368929021
32.4907,45.8304,Al Kut,Iraq,1368569694
35.3208,36.6225,Al Lataminah,Syria,1760263860
20.1500,40.2667,Al Lith,Saudi Arabia,1682243537
33.6667,-6.3167,Al M'aziz,Morocco,1504103308
12.7897,45.0064,Al Ma`alla',Yemen,1887620650
13.7167,44.7333,Al Madad,Yemen,1887543762
25.7167,32.6500,Al Madamud,Egypt,1818431308
23.3103,57.9455,Al Madrah Sama'il,Oman,1512000205
32.3399,36.2052,Al Mafraq,Jordan,1400040712
30.9686,31.1636,Al Mahallah al Kubra,Egypt,1818406471
15.4694,43.5453,Al Mahwit,Yemen,1887764813
19.1167,41.9167,Al Majaridah,Saudi Arabia,1682638402
25.9039,45.3456,Al Majma`ah,Saudi Arabia,1682506946
37.1667,42.1333,Al Malikiyah,Syria,1760784945
26.1008,50.4878,Al Malikiyah,Bahrain,1048201058
14.2467,32.9861,Al Manaqil,Sudan,1729742500
31.0500,31.3833,Al Mansurah,Egypt,1818255319
12.8531,44.9722,Al Mansurah,Yemen,1887579179
26.7000,31.6000,Al Maraghah,Egypt,1818170583
32.5005,20.8300,Al Marj,Libya,1434742923
31.1833,32.0333,Al Matariyah,Egypt,1818621008
35.0183,40.4533,Al Mayadin,Syria,1760808069
32.4725,35.7928,Al Mazar ash Shamali,Jordan,1400714744
17.8486,52.6200,Al Mazyunah,Oman,1512004977
25.8601,44.2223,Al Midhnab,Saudi Arabia,1682375082
11.0339,27.7400,Al Mijlad,Sudan,1729768355
20.1833,41.2333,Al Mindak,Saudi Arabia,1682913363
26.4833,31.8000,Al Minshah,Egypt,1818211426
28.1194,30.7444,Al Minya,Egypt,1818607968
33.9786,44.9369,Al Miqdadiyah,Iraq,1368045951
37.0164,41.9544,Al Mu`abbadah,Syria,1760650060
33.7421,36.6435,Al Mu`addamiyah,Syria,1760021523
25.3833,49.6000,Al Mubarraz,Saudi Arabia,1682484039
22.5667,58.1167,Al Mudaybi,Oman,1512883829
26.2500,50.6167,Al Muharraq,Bahrain,1048992336
14.5333,49.1333,Al Mukalla,Yemen,1887202594
32.6322,36.3386,Al Musayfirah,Syria,1760039988
32.7786,44.2900,Al Musayyib,Iraq,1368000434
32.7109,36.0266,Al Muzayrib,Syria,1760935578
34.3688,41.0945,Al Qa'im,Iraq,1368231138
13.7569,44.1392,Al Qa`idah,Yemen,1887959673
37.0500,41.2200,Al Qamishli,Syria,1760560461
35.4572,36.0597,Al Qardahah,Syria,1760811337
34.2283,37.2406,Al Qaryatayn,Syria,1760172806
25.6959,28.8837,Al Qasr,Egypt,1818618401
26.5560,49.9960,Al Qatif,Saudi Arabia,1682001245
28.4833,30.7833,Al Qays,Egypt,1818728041
32.7333,-5.5167,Al Qbab,Morocco,1504689479
14.8612,32.3692,Al Qitena,Sudan,1729413594
32.7667,22.2500,Al Qubbah,Libya,1434167769
33.1256,35.8239,Al Qunaytirah,Syria,1760132692
19.1264,41.0789,Al Qunfudhah,Saudi Arabia,1682434353
30.6161,31.7353,Al Qurayn,Egypt,1818960742
35.0025,40.5117,Al Qurayya,Syria,1760541645
31.3167,37.3667,Al Qurayyat,Saudi Arabia,1682805250
31.0158,47.4306,Al Qurnah,Iraq,1368380047
34.5119,36.5764,Al Qusayr,Syria,1760157542
27.4143,30.8216,Al Qusiyah,Egypt,1818093562
33.7389,36.6000,Al Qutayfah,Syria,1760671268
24.0464,45.2656,Al Quway`iyah,Saudi Arabia,1682154232
26.2833,36.4167,Al Wajh,Saudi Arabia,1682508460
25.1800,51.6100,Al Wakrah,Qatar,1634261569
26.0808,32.4245,Al Waqf,Egypt,1818448534
32.6653,36.0611,Al Yadudah,Syria,1760881970
45.7583,11.0056,Ala,Italy,1380811104
41.4083,71.4806,Ala-Buka,Kyrgyzstan,1417329927
14.4184,121.0385,Alabang,Philippines,1608950948
33.2198,-86.8225,Alabaster,United States,1840013756
14.1023,122.0136,Alabat,Philippines,1608115829
6.1023,125.2868,Alabel,Philippines,1608579431
40.1683,34.8425,Alaca,Turkey,1792480764
41.6100,35.5950,Alacam,Turkey,1792375686
38.2814,26.3742,Alacati,Turkey,1792668742
29.7779,-82.4832,Alachua,United States,1840014020
39.4583,-0.4628,Alacuas,Spain,1724760114
37.5464,35.3986,Aladag,Turkey,1792029396
28.5280,-81.1868,Alafaya,United States,1840029102
8.1468,77.5413,Alagappapuram,India,1356206859
10.9826,78.3891,Alagarai,India,1356223718
43.0333,44.2333,Alagir,Russia,1643555747
-7.0889,-35.6350,Alagoa Grande,Brazil,1076229979
-7.0708,-35.7578,Alagoa Nova,Brazil,1076318882
-12.3333,-42.1167,Alagoinha,Brazil,1076539476
-6.9500,-35.5450,Alagoinha,Brazil,1076535810
-8.4658,-36.7758,Alagoinha,Brazil,1076976847
-12.1358,-38.4189,Alagoinhas,Brazil,1076155953
15.2275,-8.7403,Alahina,Mali,1466349882
63.0000,23.8167,Alajarvi,Finland,1246799974
10.1640,-84.2645,Alajuela,Costa Rica,1188394508
9.9035,-84.0996,Alajuelita,Costa Rica,1188793732
-20.2000,47.3167,Alakamisy,Madagascar,1450227437
-19.8833,46.9000,Alakamisy Anativato,Madagascar,1450915347
-21.6333,47.1500,Alakamisy Itenina,Madagascar,1450665249
-21.3167,47.2167,Alakamisy-Ambohimaha,Madagascar,1450325718
-20.4000,47.3500,Alakamisy-Ambohimahazo,Madagascar,1450823290
7.3868,124.5534,Alamada,Philippines,1608117314
13.1097,80.0972,Alamadi,India,1356716431
12.4167,39.5500,Alamat'a,Ethiopia,1231954520
37.7668,-122.2670,Alameda,United States,1840018913
42.8900,74.6300,Alamedin,Kyrgyzstan,1417392357
16.1553,119.9808,Alaminos,Philippines,1608828653
14.0635,121.2451,Alaminos,Philippines,1608904750
25.5610,86.9014,Alamnagar,India,1356100470
20.9167,-97.6750,Alamo,Mexico,1484161565
26.1810,-98.1177,Alamo,United States,1840019732
37.8548,-122.0136,Alamo,United States,1840017609
32.8837,-105.9625,Alamogordo,United States,1840019403
27.0275,-108.9400,Alamos,Mexico,1484052656
37.4752,-105.8770,Alamosa,United States,1840018921
11.3635,77.7677,Alampalaiyam,India,1356166815
15.8793,78.1334,Alampur,India,1356839498
26.0251,78.7970,Alampur,India,1356726047
24.8721,83.8829,Alampur,India,1356005063
25.5404,85.0511,Alampur Gonpura,India,1356937815
16.7833,81.9000,Alamuru,India,1356170039
17.5642,76.5685,Aland,India,1356608267
12.1910,75.4673,Alandatte,India,1356712171
11.2061,124.8478,Alangalang,Philippines,1608580659
10.0470,78.0903,Alanganallur,India,1356192802
12.6223,78.7521,Alangayam,India,1356186253
10.3604,78.9779,Alangudi,India,1356214603
8.8640,77.4994,Alangulam,India,1356105551
36.5500,32.0000,Alanya,Turkey,1792233416
57.8500,61.7000,Alapayevsk,Russia,1643648315
41.1806,31.3861,Alapli,Turkey,1792284635
-18.9667,47.7333,Alarobia,Madagascar,1450929281
-20.2000,46.8833,Alarobia Bemaha,Madagascar,1450979840
15.6244,77.2731,Alasandigutta,India,1356256634
38.3500,28.5167,Alasehir,Turkey,1792803121
45.1733,82.5546,Alashankou,China,1156292896
44.0000,8.1667,Alassio,Italy,1380546015
39.9411,49.4061,Alat,Azerbaijan,1031947328
41.7250,13.3417,Alatri,Italy,1380009791
-21.5333,47.3000,Alatsinainy Ialamarina,Madagascar,1450949627
-19.3167,47.6833,Alatsinainy-Bakaro,Madagascar,1450565382
10.6481,76.5383,Alattur,India,1356789545
54.8500,46.5833,Alatyr,Russia,1643942115
25.6440,86.4065,Alauli,India,1356202491
-2.1900,-78.8500,Alausi,Ecuador,1218578121
41.1333,44.6500,Alaverdi,Armenia,1051787137
62.5917,23.6167,Alavus,Finland,1246444159
31.4316,75.6561,Alawalpur,India,1356112709
15.2303,75.9801,Alawandi,India,1356938330
8.8843,76.9653,Alayaman,India,1356161940
39.9339,4.1403,Alayor,Spain,1724740843
44.7000,8.0333,Alba,Italy,1380267586
46.0669,23.5700,Alba Iulia,Romania,1642449522
38.9956,-1.8558,Albacete,Spain,1724000069
39.3972,-0.4156,Albal,Spain,1724860489
11.1597,-72.5856,Albania,Colombia,1170788671
41.7333,12.6667,Albano Laziale,Italy,1380821881
42.6664,-73.7987,Albany,United States,1840000417
31.5776,-84.1762,Albany,United States,1840013864
44.6272,-123.0965,Albany,United States,1840018605
-35.0228,117.8814,Albany,Australia,1036047365
37.8897,-122.3018,Albany,United States,1840028140
38.1786,-0.8681,Albatera,Spain,1724280918
35.3594,-80.1915,Albemarle,United States,1840013444
44.0500,8.2167,Albenga,Italy,1380307501
-26.1900,-58.1300,Alberdi,Paraguay,1600904463
40.6933,-8.4811,Albergaria-a-Velha,Portugal,1620890833
39.1167,-0.5211,Alberique,Spain,1724900545
40.7833,17.2333,Alberobello,Italy,1380601560
50.0028,2.6528,Albert,France,1250793960
43.6548,-93.3643,Albert Lea,United States,1840006824
47.2400,19.6067,Albertirsa,Hungary,1348408587
-26.2672,28.1219,Alberton,South Africa,1710738396
34.2633,-86.2108,Albertville,United States,1840013599
45.6767,6.3933,Albertville,France,1250427117
43.9289,2.1464,Albi,France,1250988425
45.3500,11.8667,Albignasego,Italy,1380732466
5.5000,-54.0500,Albina,Suriname,1740921776
44.6167,10.6000,Albinea,Italy,1380433686
45.7606,9.7969,Albino,Italy,1380409115
51.8702,4.6667,Alblasserdam,Netherlands,1528038126
37.2306,-3.6569,Albolote,Spain,1724140876
39.5000,-0.3522,Alboraya,Spain,1724241743
37.3833,-2.1333,Albox,Spain,1724868693
48.2119,9.0239,Albstadt,Germany,1276969750
34.4536,40.9367,Albu Kamal,Syria,1760836213
10.9186,124.6923,Albuera,Philippines,1608775659
37.0897,-8.2458,Albufeira,Portugal,1620078404
35.1054,-106.6465,Albuquerque,United States,1840019176
9.6104,123.9549,Alburquerque,Philippines,1608280390
-36.0806,146.9158,Albury,Australia,1036076542
38.3725,-8.5136,Alcacer do Sal,Portugal,1620351188
15.8468,120.5218,Alcala,Philippines,1608910031
17.9031,121.6556,Alcala,Philippines,1608450739
4.6667,-75.7500,Alcala,Colombia,1170054347
37.3333,-5.8500,Alcala de Guadaira,Spain,1724537443
40.4667,-3.3667,Alcala de Henares,Spain,1724663253
37.4500,-3.9167,Alcala la Real,Spain,1724682908
9.1200,-79.5500,Alcalde Diaz,Panama,1591462898
37.9778,12.9639,Alcamo,Italy,1380182511
40.5440,0.4820,Alcanar,Spain,1724553541
39.4667,-8.6667,Alcanena,Portugal,1620799086
41.0511,-0.1336,Alcaniz,Spain,1724184358
-2.4089,-44.4150,Alcantara,Brazil,1076650057
12.2584,122.0543,Alcantara,Philippines,1608033218
9.9715,123.4047,Alcantara,Philippines,1608085067
-3.5889,-40.5458,Alcantaras,Brazil,1076451406
37.9722,-1.2094,Alcantarilla,Spain,1724229842
41.5661,0.5261,Alcarraz,Spain,1724729662
37.5833,-4.1000,Alcaudete,Spain,1724011838
39.4056,-3.2056,Alcazar de San Juan,Spain,1724889534
48.4778,38.7978,Alchevsk,Ukraine,1804025187
39.1500,-0.4350,Alcira,Spain,1724303009
35.8076,-83.9753,Alcoa,United States,1840013404
39.5528,-8.9778,Alcobaca,Portugal,1620702700
-17.5190,-39.1960,Alcobaca,Brazil,1076035694
40.5333,-3.6333,Alcobendas,Spain,1724354998
38.7500,-8.9667,Alcochete,Portugal,1620781537
40.0667,-0.2000,Alcora,Spain,1724288303
40.3500,-3.8333,Alcorcon,Spain,1724318578
-33.5333,-61.1167,Alcorta,Argentina,1032368367
38.6983,-0.4736,Alcoy,Spain,1724702362
9.7082,123.5060,Alcoy,Philippines,1608968544
39.8525,3.1192,Alcudia,Spain,1724681701
28.8386,-105.9111,Aldama,Mexico,1484197521
22.9194,-98.0736,Aldama,Mexico,1484835121
58.6167,125.4167,Aldan,Russia,1643237106
39.4639,-0.4628,Aldaya,Spain,1724676507
38.6270,-9.0760,Aldeia de Paio Pires,Portugal,1620232437
-4.6278,-43.4708,Aldeias Altas,Brazil,1076098052
42.9114,-78.5211,Alden,United States,1840004394
51.6723,-0.3546,Aldenham,United Kingdom,1826963300
50.8958,6.2831,Aldenhoven,Germany,1276558871
51.2483,-0.7614,Aldershot,United Kingdom,1826766548
47.8146,-122.2672,Alderwood Manor,United States,1840017323
29.9123,-95.3784,Aldine,United States,1840018250
-34.7083,-58.5181,Aldo Bonzi,Argentina,1032281187
41.1710,-8.6710,Aldoar,Portugal,1620646710
52.6060,-1.9179,Aldridge,United Kingdom,1826685347
2.2500,33.3150,Alebtong,Uganda,1800244501
17.0500,-13.9167,Aleg,Mauritania,1478173139
-20.7639,-41.5328,Alegre,Brazil,1076514864
-29.7838,-55.7910,Alegrete,Brazil,1076174745
9.7243,123.3402,Alegria,Philippines,1608812207
9.4667,125.5767,Alegria,Philippines,1608913712
13.5000,-88.4833,Alegria,El Salvador,1222469913
-34.9667,-58.3667,Alejandro Korn,Argentina,1032420273
56.4000,38.7333,Aleksandrov,Russia,1643014960
50.1333,48.5500,Aleksandrov Gay,Russia,1643709614
43.4589,21.0464,Aleksandrovac,Serbia,1688573505
42.8528,74.2194,Aleksandrovka,Kyrgyzstan,1417705377
59.1667,57.6000,Aleksandrovsk,Russia,1643050793
50.9000,142.1500,Aleksandrovsk-Sakhalinskiy,Russia,1643873847
44.7167,43.0000,Aleksandrovskoye,Russia,1643340732
52.8767,18.6936,Aleksandrow Kujawski,Poland,1616651073
51.8194,19.3039,Aleksandrow Lodzki,Poland,1616531721
50.6333,38.7000,Alekseyevka,Russia,1643033169
54.5167,37.1000,Aleksin,Russia,1643013998
43.5500,21.7000,Aleksinac,Serbia,1688039133
41.4950,2.2960,Alella,Spain,1724686640
-21.8878,-42.7039,Alem Paraiba,Brazil,1076955526
48.4306,0.0931,Alencon,France,1250000395
10.1000,76.3000,Alengad,India,1356054259
-1.9448,-54.7320,Alenquer,Brazil,1076529970
39.0500,-9.0167,Alenquer,Portugal,1620149244
36.2000,37.1600,Aleppo,Syria,1760366651
-41.4000,-72.9333,Alerce,Chile,1152663651
44.1281,4.0817,Ales,France,1250908381
47.0572,22.3969,Alesd,Romania,1642008624
33.8653,48.2622,Aleshtar,Iran,1364420866
44.9167,8.6167,Alessandria,Italy,1380334322
62.4740,6.1582,Alesund,Norway,1578050516
29.4767,76.4522,Alewah,India,1356795763
-28.6083,16.5033,Alexander Bay,South Africa,1710616152
32.9229,-85.9358,Alexander City,United States,1840013788
40.6333,22.4500,Alexandreia,Greece,1300981589
31.1975,29.8925,Alexandria,Egypt,1818695837
38.8185,-77.0861,Alexandria,United States,1840003837
31.2923,-92.4702,Alexandria,United States,1840013873
43.9686,25.3333,Alexandria,Romania,1642953190
45.8776,-95.3767,Alexandria,United States,1840006680
-6.4128,-38.0158,Alexandria,Brazil,1076254681
38.9621,-84.3859,Alexandria,United States,1840013162
-33.6533,26.4083,Alexandria,South Africa,1710000053
40.8500,25.8667,Alexandroupoli,Greece,1300949419
-16.0786,-48.5008,Alexania,Brazil,1076561964
52.5000,82.7833,Aleysk,Russia,1643212700
39.4222,-0.3906,Alfafar,Spain,1724290706
20.4000,-99.3500,Alfajayucan,Mexico,1484991912
42.1783,-1.7492,Alfaro,Spain,1724727631
51.9886,9.8269,Alfeld,Germany,1276733070
41.2380,-8.5250,Alfena,Portugal,1620416709
-21.4333,-45.9500,Alfenas,Brazil,1076300425
44.5000,12.0500,Alfonsine,Italy,1380940299
14.1379,120.8552,Alfonso,Philippines,1608847500
15.7933,121.3025,Alfonso Castaneda,Philippines,1608693079
48.8050,2.4239,Alfortville,France,1250857642
45.5667,-74.9167,Alfred and Plantagenet,Canada,1124001813
-20.6350,-40.7500,Alfredo Chaves,Brazil,1076666348
-27.7000,-49.3339,Alfredo Wagner,Brazil,1076900452
53.0970,-1.3800,Alfreton,United Kingdom,1826000016
50.7356,7.0092,Alfter,Germany,1276256549
49.9028,57.3333,Alga,Kazakhstan,1398920371
10.1000,-74.2667,Algarrobo,Colombia,1170405852
10.1000,-74.2667,Algarrobo,Colombia,1170512460
-33.3911,-71.6928,Algarrobo,Chile,1152829157
36.1275,-5.4539,Algeciras,Spain,1724355681
2.5333,-75.3167,Algeciras,Colombia,1170438880
39.1897,-0.4378,Algemesi,Spain,1724231513
40.5978,-3.5003,Algete,Spain,1724204700
40.5600,8.3150,Alghero,Italy,1380434974
36.7539,3.0589,Algiers,Algeria,1012973369
39.2625,-0.4683,Alginet,Spain,1724793089
42.1629,-88.3159,Algonquin,United States,1840010110
38.0514,-1.2414,Alguazas,Spain,1724241306
31.2795,74.6517,Algun,India,1356212811
37.8514,-1.4264,Alhama de Murcia,Spain,1724947627
34.0840,-118.1355,Alhambra,United States,1840019222
-7.4333,-34.9000,Alhandra,Brazil,1076719161
36.6667,-4.5500,Alhaurin de la Torre,Spain,1724504346
36.6331,-4.6831,Alhaurin el Grande,Spain,1724876495
37.1167,-3.6500,Alhendin,Spain,1724096901
11.1500,42.7167,Ali Sabieh,Djibouti,1262104228
41.4783,46.6175,Aliabad,Azerbaijan,1031807683
39.2267,45.3983,Aliabad,Azerbaijan,1031850856
38.8008,26.9728,Aliaga,Turkey,1792034311
15.5036,120.8450,Aliaga,Philippines,1608044866
-7.6028,-35.2308,Alianca,Brazil,1076773543
38.3717,23.1050,Aliartos,Greece,1300190114
45.0806,20.9656,Alibunar,Serbia,1688248362
38.3453,-0.4831,Alicante,Spain,1724923163
27.7556,-98.0653,Alice,United States,1840019714
-32.7892,26.8350,Alice,South Africa,1710093776
-23.7000,133.8700,Alice Springs,Australia,1036830397
16.7787,121.6972,Alicia,Philippines,1608136235
7.5060,122.9412,Alicia,Philippines,1608675842
9.8957,124.4415,Alicia,Philippines,1608855246
24.9365,85.9250,Aliganj,India,1356234041
27.8800,78.0800,Aligarh,India,1356076391
33.4025,49.6903,Aligudarz,Iran,1364252948
41.2761,-7.4750,Alijo,Portugal,1620658703
10.8196,122.4322,Alimodian,Philippines,1608277073
37.9167,23.7167,Alimos,Greece,1300088630
5.0333,21.2167,Alindao,Central African Republic,1140620640
57.9300,12.5331,Alingsas,Sweden,1752378437
18.8621,78.8754,Alipur,India,1356133308
26.4890,89.5270,Alipur Duar,India,1356472105
40.6155,-80.2547,Aliquippa,United States,1840001009
33.5792,-117.7289,Aliso Viejo,United States,1840019321
13.8650,121.0063,Alitagtag,Philippines,1608000702
-30.7000,26.7000,Aliwal North,South Africa,1710445896
12.6317,79.2164,Aliyabad,India,1356083368
37.2667,-7.0167,Aljaraque,Spain,1724459161
37.9167,-8.1667,Aljustrel,Portugal,1620079386
50.8761,5.3078,Alken,Belgium,1056681067
43.2586,45.5392,Alkhan-Kala,Russia,1643152177
43.2317,45.5722,Alkhan-Yurt,Russia,1643086504
52.6333,4.7500,Alkmaar,Netherlands,1528566376
18.2270,121.5556,Allacapan,Philippines,1608618208
6.6500,2.1500,Allada,Benin,1204001429
15.1322,78.5138,Allagadda,India,1356073530
28.9333,70.9667,Allahabad,Pakistan,1586357487
17.9667,77.9167,Allahdurg,India,1356302297
26.3434,77.8195,Allahpur,India,1356017810
19.3783,95.2279,Allanmyo,Burma,1104582279
-27.7544,26.6367,Allanridge,South Africa,1710862550
43.3369,5.4828,Allauch,France,1250339228
33.1088,-96.6735,Allen,United States,1840019396
12.5013,124.2820,Allen,Philippines,1608146334
-38.9667,-67.8333,Allen,Argentina,1032144191
42.2595,-83.2107,Allen Park,United States,1840003967
42.9845,-85.9499,Allendale,United States,1840004345
28.3333,-100.8333,Allende,Mexico,1484737223
40.5961,-75.4756,Allentown,United States,1840001044
9.4900,76.3300,Alleppey,India,1356293762
43.0870,46.3020,Alleroy,Russia,1643528710
52.9519,-1.4856,Allestree,United Kingdom,1826396769
40.9107,-81.1189,Alliance,United States,1840000962
10.0119,77.4786,Allinagaram,India,1356113956
40.5730,-79.9603,Allison Park,United States,1840026468
44.1500,-79.8667,Alliston,Canada,1124831787
56.1160,-3.7930,Alloa,United Kingdom,1826126712
47.9686,0.1606,Allonnes,France,1250722927
44.4721,-88.0259,Allouez,United States,1840002346
47.5500,7.5333,Allschwil,Switzerland,1756684864
14.6800,80.0600,Allur,India,1356190180
15.1336,78.4975,Alluru,India,1356074737
48.5500,-71.6500,Alma,Canada,1124138438
43.3799,-84.6556,Alma,United States,1840002879
38.6803,-9.1583,Almada,Portugal,1620388276
11.9108,124.2852,Almagro,Philippines,1608267193
38.8878,-3.7122,Almagro,Spain,1724161420
1.9167,-76.8667,Almaguer,Colombia,1170307475
38.8682,-1.0979,Almansa,Spain,1724819701
38.8475,-9.2714,Almargem,Portugal,1620407856
38.6833,68.6000,Almasi,Tajikistan,1762773329
43.2400,76.9150,Almaty,Kazakhstan,1398351701
39.9403,-0.0625,Almazora,Spain,1724564412
-1.5228,-52.5819,Almeirim,Brazil,1076655786
39.2000,-8.6167,Almeirim,Portugal,1620738863
16.9200,76.2400,Almel,India,1356472316
52.3500,6.6667,Almelo,Netherlands,1528084436
-16.1839,-40.6939,Almenara,Brazil,1076953924
38.6833,-6.4167,Almendralejo,Spain,1724000018
52.3667,5.2167,Almere,Netherlands,1528683566
36.8403,-2.4681,Almeria,Spain,1724745640
11.6206,124.3794,Almeria,Philippines,1608711562
54.9000,52.3000,Almetyevsk,Russia,1643421011
56.5500,14.1333,Almhult,Sweden,1752497359
9.3000,-82.4000,Almirante,Panama,1591293829
-25.3250,-49.3100,Almirante Tamandare,Brazil,1076372357
14.8122,-91.4944,Almolonga,Guatemala,1320537455
19.7000,-98.4000,Almoloya,Mexico,1484494575
18.8500,-99.8500,Almoloya de Alquisiras,Mexico,1484855096
19.1586,-99.4886,Almoloya del Rio,Mexico,1484000708
53.6344,-1.7489,Almondbury,United Kingdom,1826676976
37.2667,-6.5167,Almonte,Spain,1724955448
29.5971,79.6591,Almora,India,1356045284
38.1097,-0.7894,Almoradi,Spain,1724624918
36.7333,-3.6833,Almunecar,Spain,1724549849
40.3748,36.9031,Almus,Turkey,1792278732
39.2903,-0.4147,Almusafes,Spain,1724698693
15.4273,74.7411,Alnavar,India,1356106746
31.1167,-5.1667,Alnif,Morocco,1504225472
-19.0560,-169.9210,Alofi,Niue,1570882835
10.2229,123.5491,Aloguinsan,Philippines,1608628202
45.4920,-122.8725,Aloha,United States,1840017414
6.1183,100.3694,Alor Setar,Malaysia,1458273978
8.4146,123.8228,Aloran,Philippines,1608445813
-10.3167,150.4333,Alotau,Papua New Guinea,1598284215
14.4878,-90.8058,Alotenango,Guatemala,1320366805
40.5967,-3.2481,Alovera,Spain,1724090496
40.6583,-4.0322,Alpedrete,Spain,1724547365
51.5750,6.5125,Alpen,Germany,1276474767
45.0740,-83.4402,Alpena,United States,1840003947
34.0704,-84.2738,Alpharetta,United States,1840013659
52.1333,4.6667,Alphen aan den Rijn,Netherlands,1528593016
45.1000,7.5167,Alpignano,Italy,1380567274
32.8439,-116.7585,Alpine,United States,1840018014
40.4629,-111.7724,Alpine,United States,1840018755
-20.8639,-46.3878,Alpinopolis,Brazil,1076981643
39.7667,30.9500,Alpu,Turkey,1792508454
22.8067,-82.5828,Alquizar,Cuba,1192960992
53.0960,-2.3050,Alsager,United Kingdom,1826797417
49.7333,8.6000,Alsbach-Hahnlein,Germany,1276622371
50.8833,6.1667,Alsdorf,Germany,1276261156
50.7511,9.2711,Alsfeld,Germany,1276584676
41.6701,-87.7368,Alsip,United States,1840010147
17.2500,74.5700,Alta,India,1356990654
69.9689,23.2716,Alta,Norway,1578308187
59.2500,18.1833,Alta,Sweden,1752413057
-9.8861,-56.0872,Alta Floresta,Brazil,1076069666
-11.9681,-61.9542,Alta Floresta D'Oeste,Brazil,1076909732
-31.6667,-64.4333,Alta Gracia,Argentina,1032411567
34.1927,-118.1346,Altadena,United States,1840017918
11.5667,-85.5833,Altagracia,Nicaragua,1558219497
9.8504,-66.3800,Altagracia de Orituco,Venezuela,1862533029
-3.2028,-52.2058,Altamira,Brazil,1076710878
22.3375,-97.8694,Altamira,Mexico,1484764524
19.6667,-70.8333,Altamira,Dominican Republic,1214514689
16.7361,-92.0389,Altamirano,Mexico,1484175446
42.1980,-121.7248,Altamont,United States,1840017440
28.6615,-81.3953,Altamonte Springs,United States,1840014072
40.8167,16.5500,Altamura,Italy,1380125300
24.6333,-107.9167,Altata,Mexico,1484699069
11.5383,122.4869,Altavas,Philippines,1608142591
38.0500,13.5500,Altavilla Milicia,Italy,1380722110
45.5167,11.4500,Altavilla Vicentina,Italy,1380330182
47.8666,88.1166,Altay,China,1156855629
46.3728,96.2572,Altay,Mongolia,1496574715
48.5667,12.1167,Altdorf,Germany,1276813399
46.8667,8.6333,Altdorf,Switzerland,1756957308
38.5986,-0.0519,Altea,Spain,1724509426
51.3000,7.6667,Altena,Germany,1276575290
51.7667,8.9333,Altenbeken,Germany,1276435516
52.0458,7.4653,Altenberge,Germany,1276349933
50.9850,12.4333,Altenburg,Germany,1276224301
54.4000,10.1333,Altenholz,Germany,1276597876
50.2856,8.9450,Altenstadt,Germany,1276344597
48.5864,8.6047,Altensteig,Germany,1276878570
18.3500,-97.3167,Altepexi,Mexico,1484498863
-21.2500,-46.1333,Alterosa,Brazil,1076001106
39.9636,32.9033,Altindag,Turkey,1792907387
38.3078,32.8686,Altinekin,Turkey,1792784602
-21.0231,-47.3728,Altinopolis,Brazil,1076728807
40.6975,29.5114,Altinova,Turkey,1792919647
36.1000,36.2300,Altinozu,Turkey,1792190808
39.0615,30.1099,Altintas,Turkey,1792043886
39.2725,36.7511,Altinyayla,Turkey,1792888799
52.5667,13.7331,Altlandsberg,Germany,1276344426
47.9014,13.7514,Altmunster,Austria,1040325018
-12.1278,-61.8508,Alto Alegre dos Parecis,Brazil,1076019248
-17.3167,-53.2000,Alto Araguaia,Brazil,1076823641
-5.2833,-36.7667,Alto do Rodrigues,Brazil,1076256231
-16.9333,-53.5333,Alto Garcas,Brazil,1076413625
-20.2500,-70.1167,Alto Hospicio,Chile,1152536354
-5.2500,-42.2000,Alto Longa,Brazil,1076773885
-14.1333,-47.5167,Alto Paraiso de Goias,Brazil,1076966405
-23.0833,-52.3667,Alto Parana,Brazil,1076148940
-9.1108,-45.9300,Alto Parnaiba,Brazil,1076860492
-24.0167,-53.4667,Alto Piquiri,Brazil,1076224592
-21.0333,-43.4167,Alto Rio Doce,Brazil,1076504433
-45.0167,-70.8167,Alto Rio Senguer,Argentina,1032532362
-5.5208,-38.2719,Alto Santo,Brazil,1076376148
-10.0500,19.5167,Alto-Cuilo,Angola,1024029875
38.0500,13.3000,Altofonte,Italy,1380191830
38.9037,-90.1520,Alton,United States,1840007424
26.2884,-98.3098,Alton,United States,1840019733
51.1498,-0.9769,Alton,United Kingdom,1826279601
-23.9333,-53.9000,Altonia,Brazil,1076528546
40.5082,-78.4007,Altoona,United States,1840001080
41.6483,-93.4783,Altoona,United States,1840007065
44.8029,-91.4385,Altoona,United States,1840002295
43.8167,10.6833,Altopascio,Italy,1380450023
-5.0389,-42.4608,Altos,Brazil,1076874326
-25.2333,-57.2500,Altos,Paraguay,1600982607
8.8000,-74.1667,Altos del Rosario,Colombia,1170079040
48.2267,12.6783,Altotting,Germany,1276161581
53.3838,-2.3547,Altrincham,United Kingdom,1826280426
47.3833,9.5500,Altstatten,Switzerland,1756529261
35.7533,44.1436,Altun Kawbri,Iraq,1368208612
37.9981,34.3711,Altunhisar,Turkey,1792539911
34.6565,-99.3061,Altus,United States,1840019202
47.8000,10.2167,Altusried,Germany,1276723201
8.5714,124.4751,Alubijid,Philippines,1608269125
40.3167,38.7667,Alucra,Turkey,1792565216
11.4458,77.3574,Alukkuli,India,1356163498
57.4167,27.0500,Aluksne,Latvia,1428873095
37.3694,-121.8238,Alum Rock,United States,1840017638
15.3942,77.2264,Alur,India,1356013492
44.6672,34.3978,Alushta,Ukraine,1804773543
36.1867,50.0639,Alvand,Iran,1364589535
18.7811,-95.7572,Alvarado,Mexico,1484208918
4.5667,-74.9500,Alvarado,Colombia,1170398878
-3.2208,-64.8042,Alvaraes,Brazil,1076076112
-22.0744,-51.4733,Alvares Machado,Brazil,1076095632
29.3872,-95.2938,Alvin,United States,1840019671
-20.1069,-43.0489,Alvinopolis,Brazil,1076309584
-29.9897,-51.0833,Alvorada,Brazil,1076999998
-12.4800,-49.1250,Alvorada,Brazil,1076121080
-11.3414,-62.2864,Alvorada D'Oeste,Brazil,1076530041
-22.7833,-51.1833,Alvorada do Sul,Brazil,1076000190
8.6100,77.9400,Alwa Tirunagari,India,1356540796
17.5047,78.5038,Alwal,India,1356947057
27.5498,76.6355,Alwar,India,1356570855
8.7838,77.3952,Alwarkurichchi,India,1356605258
10.1167,76.3500,Alwaye,India,1356109728
54.4014,24.0492,Alytus,Lithuania,1440273296
45.7317,9.7286,Alzano Lombardo,Italy,1380900977
50.0667,9.0667,Alzenau in Unterfranken,Germany,1276942017
49.7458,8.1153,Alzey,Germany,1276680173
11.0333,20.2833,Am-Timan,Chad,1148823427
35.2004,136.7832,Ama,Japan,1392003383
18.6000,-99.3700,Amacuzac,Mexico,1484072402
14.1728,120.9277,Amadeo,Philippines,1608636193
38.7333,-9.2333,Amadora,Portugal,1620896557
6.0500,-75.7000,Amaga,Colombia,1170092259
34.7333,135.4000,Amagasaki,Japan,1392003182
26.1284,86.7998,Amaha,India,1356129136
-3.3331,128.9190,Amahai,Indonesia,1360767250
32.4667,130.2000,Amakusa,Japan,1392003308
59.0500,12.7000,Amal,Sweden,1752187898
9.8590,76.8112,Amala,India,1356160058
16.5787,82.0061,Amalapuram,India,1356997622
6.9167,-75.0833,Amalfi,Colombia,1170542286
37.8000,21.3500,Amaliada,Greece,1300074645
21.0500,75.0500,Amalner,India,1356850132
36.4778,4.6333,Amalou,Algeria,1012045463
-23.1039,-55.2258,Amambai,Brazil,1076013576
28.3783,129.4944,Amami,Japan,1392003169
20.8197,-77.5844,Amancio,Cuba,1192932562
16.8499,78.5327,Amangal,India,1356070257
24.4266,80.0358,Amanganj,India,1356973374
39.1333,16.0667,Amantea,Italy,1380959246
2.0528,-50.7928,Amapa,Brazil,1076834242
-8.4000,-35.4500,Amaraji,Brazil,1076105357
41.2703,-8.0808,Amarante,Portugal,1620688725
-6.2408,-42.8550,Amarante,Brazil,1076771383
-5.6000,-46.7500,Amarante do Maranhao,Brazil,1076306284
21.9000,96.0500,Amarapura,Burma,1104567036
14.1333,76.9833,Amarapuuram,India,1356001353
16.5131,80.5165,Amaravati,India,1356002501
16.5730,80.3580,Amaravati,India,1356116050
16.3740,77.7729,Amarchinta,India,1356070260
41.6167,-8.3333,Amares,Portugal,1620212427
-13.0300,-39.6050,Amargosa,Brazil,1076608607
25.7179,86.0839,Amari,India,1356096170
35.1984,-101.8316,Amarillo,United States,1840019156
24.3137,80.9770,Amarpatan,India,1356524463
25.0397,86.9025,Amarpur,India,1356373131
23.5300,91.6400,Amarpur,India,1356990272
26.3667,73.9833,Amarpura,India,1356854535
26.8333,84.2500,Amarwa Khurd,India,1356263819
22.2978,79.1694,Amarwara,India,1356152620
31.0500,-7.2167,Amarzgane,Morocco,1504948640
41.7494,32.3864,Amasra,Turkey,1792275434
40.6500,35.8331,Amasya,Turkey,1792344167
17.3667,-92.8167,Amatan,Mexico,1484881501
15.5333,-92.0833,Amatenango de la Frontera,Mexico,1484343885
16.5167,-92.4000,Amatenango del Valle,Mexico,1484632903
18.6500,-100.1500,Amatepec,Mexico,1484058749
20.8350,-103.7310,Amatitan,Mexico,1484634445
14.4833,-90.6167,Amatitlan,Guatemala,1320637423
18.8457,-96.9149,Amatlan de los Reyes,Mexico,1484683104
-3.3639,-68.1978,Amatura,Brazil,1076997362
-10.0426,148.5650,Amau,Papua New Guinea,1598610032
25.0531,84.5169,Amauna,India,1356626059
5.4667,7.5667,Amawom,Nigeria,1566956703
50.5500,5.3167,Amay,Belgium,1056317273
26.3205,78.7581,Amayan,India,1356274623
25.6140,86.4258,Amba Icharua,India,1356276487
16.5316,121.0282,Ambaguio,Philippines,1608849107
-21.8667,47.9500,Ambahatrazo,Madagascar,1450118510
-21.6000,43.6667,Ambahikily,Madagascar,1450105131
-24.0000,45.2667,Ambahita,Madagascar,1450954940
-22.2000,47.7167,Ambahive,Madagascar,1450201009
-16.7667,49.5000,Ambahoabe,Madagascar,1450430279
-20.7667,48.4833,Ambahy,Madagascar,1450922020
18.7300,76.3800,Ambajogai,India,1356117450
-17.6667,47.8500,Ambakireny,Madagascar,1450303775
30.3800,76.7800,Ambala,India,1356947216
17.6500,79.0500,Ambala,India,1356604322
-15.1667,50.4167,Ambalabe,Madagascar,1450947423
-17.4833,46.1167,Ambalajia,Madagascar,1450290586
-21.1667,47.3333,Ambalakindresy,Madagascar,1450729938
-15.8333,48.5000,Ambalakirajy,Madagascar,1450763595
-14.5167,49.5833,Ambalamanasy II,Madagascar,1450605901
-18.7500,46.5000,Ambalanirana,Madagascar,1450592549
-16.7000,47.0833,Ambalanjanakomby,Madagascar,1450821290
16.5900,75.9600,Ambalanur,India,1356298718
-22.1333,47.7333,Ambalaroka,Madagascar,1450936637
-14.6667,49.3333,Ambalaromba,Madagascar,1450599177
-18.4667,48.9833,Ambalarondra,Madagascar,1450882593
-22.5333,47.6000,Ambalatany,Madagascar,1450788430
-21.8333,46.9333,Ambalavao,Madagascar,1450812103
-19.1000,47.5333,Ambalavao,Madagascar,1450481528
-22.9667,47.4667,Ambalavato,Madagascar,1450281811
11.6190,76.2102,Ambalavayal,India,1356119786
-21.8000,47.7833,Ambalavero,Madagascar,1450039308
-14.4667,48.3000,Ambaliha,Madagascar,1450636460
-13.6786,48.4522,Ambanja,Madagascar,1450987919
-19.8000,47.0333,Ambano,Madagascar,1450997295
22.1902,78.6708,Ambara,India,1356784325
-13.5000,48.8667,Ambarakaraka,Madagascar,1450875169
-15.0167,48.6333,Ambararata,Madagascar,1450169435
-18.9900,46.1900,Ambararatabe,Madagascar,1450180554
-7.2667,110.4000,Ambarawa,Indonesia,1360693146
69.6261,162.3039,Ambarchik,Russia,1643739159
44.9258,-0.4853,Ambares-et-Lagrave,France,1250081826
-16.5000,46.0000,Ambarimaninga,Madagascar,1450371857
-15.8833,48.9667,Ambariokorano,Madagascar,1450736655
8.7037,77.4527,Ambasamudram,India,1356103053
-1.2417,-78.6197,Ambato,Ecuador,1218046148
-18.6000,47.5000,Ambato,Madagascar,1450100718
-20.5500,46.8000,Ambatofinandrahana,Madagascar,1450850777
-20.0833,47.9000,Ambatofisaka II,Madagascar,1450651839
-21.7500,47.4833,Ambatofotsy,Madagascar,1450519366
-17.3000,49.1167,Ambatoharanana,Madagascar,1450149595
-16.4333,49.5833,Ambatoharanana,Madagascar,1450166915
-20.0000,45.5333,Ambatolahy,Madagascar,1450548076
-22.5333,46.0000,Ambatolahy,Madagascar,1450502699
-19.7333,47.2833,Ambatolahy,Madagascar,1450305568
-19.3861,47.4292,Ambatolampy,Madagascar,1450037305
-18.9000,46.1167,Ambatolampy,Madagascar,1450574788
-23.5667,47.3000,Ambatolava,Madagascar,1450777650
-17.6833,48.2167,Ambatomainty,Madagascar,1450199483
-20.9000,46.4500,Ambatomainty,Madagascar,1450861894
-18.8833,46.8667,Ambatomanjaka,Madagascar,1450557644
-18.3167,47.6167,Ambatomanoina,Madagascar,1450369214
-20.5833,47.0167,Ambatomarina,Madagascar,1450490728
-18.7333,47.4500,Ambatomasina,Madagascar,1450692474
-19.4000,47.1167,Ambatomborona,Madagascar,1450670028
-19.8500,47.2500,Ambatomena,Madagascar,1450833007
-19.6833,47.4167,Ambatomiady,Madagascar,1450424927
-20.2667,46.9167,Ambatomifanongoa,Madagascar,1450751314
-18.9333,47.3833,Ambatomirahavavy,Madagascar,1450466321
-23.8333,45.5667,Ambatomivary,Madagascar,1450847805
-19.4333,47.5000,Ambatondrakalavao,Madagascar,1450037495
-17.8256,48.4289,Ambatondrazaka,Madagascar,1450068349
-14.5000,48.9500,Ambatoria,Madagascar,1450620872
-14.6667,48.6500,Ambatosia,Madagascar,1450014138
-17.6167,48.5167,Ambatosoratra,Madagascar,1450886984
-19.6333,47.7500,Ambatotsipihina,Madagascar,1450556369
13.1143,80.1548,Ambattur,India,1356685959
10.2603,77.9303,Ambatturai,India,1356286270
-25.3139,45.8972,Ambazoa,Madagascar,1450252226
49.4444,11.8483,Amberg,Germany,1276551955
45.9631,5.3541,Amberieu-en-Bugey,France,1250767338
-19.2500,46.6167,Amberomanga,Madagascar,1450006485
-16.5167,46.8667,Ambesisika,Madagascar,1450028481
24.5568,87.8651,Ambhua,India,1356444911
23.1200,83.2000,Ambikapur,India,1356110265
-21.9833,47.9500,Ambila,Madagascar,1450155551
-13.2000,49.0500,Ambilobe,Madagascar,1450374226
-13.7667,49.7500,Ambinanin' Andravory,Madagascar,1450604445
-20.5333,48.5500,Ambinanin'i Sakaleona,Madagascar,1450503143
-21.9167,47.1000,Ambinanindovoka,Madagascar,1450885987
-20.6833,47.5667,Ambinanindrano,Madagascar,1450392046
-20.6500,47.8000,Ambinanindrano,Madagascar,1450049097
-21.6667,47.5167,Ambinanintromby,Madagascar,1450658500
-16.9500,49.5833,Ambinanisakana,Madagascar,1450453303
-15.3500,49.5833,Ambinanitelo,Madagascar,1450149490
-18.6000,49.1167,Ambinanynony,Madagascar,1450742943
-7.4333,14.6500,Ambiula,Angola,1024070190
52.4600,-2.1600,Amblecote,United Kingdom,1826685308
-15.9333,48.7167,Amboaboa,Madagascar,1450226220
-14.1333,49.8167,Amboahangibe,Madagascar,1450703164
-19.1500,47.1667,Amboanana,Madagascar,1450418380
-22.0000,47.8500,Amboanjo,Madagascar,1450091390
-25.0500,46.3833,Amboasary,Madagascar,1450064335
-18.4333,48.2667,Amboasary-Gara,Madagascar,1450032744
-17.3000,48.5000,Amboavory,Madagascar,1450001958
-14.5333,49.8667,Ambodiampana,Madagascar,1450410168
-16.8167,49.5667,Ambodiampana,Madagascar,1450144383
-14.6000,49.5000,Ambodiangezoka,Madagascar,1450741103
-20.3388,48.5177,Ambodibonara,Madagascar,1450738968
-14.7500,48.9833,Ambodihara,Madagascar,1450973236
-18.1194,49.1208,Ambodilazana,Madagascar,1450502468
-14.6000,48.0833,Ambodimadiro,Madagascar,1450696030
-15.7333,48.0833,Ambodimahabibo,Madagascar,1450192995
-15.2167,48.0833,Ambodimanary,Madagascar,1450651140
-14.7833,48.0833,Ambodimandresy,Madagascar,1450907900
-17.2667,49.1667,Ambodimanga II,Madagascar,1450874988
-17.5167,48.9500,Ambodimangavolo,Madagascar,1450962406
-15.3833,48.6000,Ambodimotso Atsimo,Madagascar,1450354042
-20.9833,47.8833,Ambodinonoka,Madagascar,1450637374
-19.5833,47.5333,Ambodiriana,Madagascar,1450970500
-17.8861,49.1875,Ambodiriana,Madagascar,1450447808
-15.4167,47.9333,Ambodisakoana,Madagascar,1450641793
-14.2333,48.4833,Ambodisikidy,Madagascar,1450041005
-16.1833,49.6667,Ambodivoanio,Madagascar,1450736682
-14.4000,49.9500,Ambodivoara,Madagascar,1450201923
-19.6167,47.1500,Ambohibary,Madagascar,1450162671
-18.9000,48.2333,Ambohibary,Madagascar,1450987733
-17.4500,49.1167,Ambohibe,Madagascar,1450755165
-19.1833,46.7667,Ambohidanerana,Madagascar,1450817535
-19.8833,47.1500,Ambohidranandriana,Madagascar,1450724401
-18.9000,47.4667,Ambohidrapeto,Madagascar,1450249621
-18.7500,48.0333,Ambohidronono,Madagascar,1450192899
-17.4000,48.3667,Ambohijanahary,Madagascar,1450399017
-18.9833,47.5500,Ambohijanaka,Madagascar,1450475347
-21.9333,47.1833,Ambohimahamasina,Madagascar,1450478240
-21.1064,47.2161,Ambohimahasoa,Madagascar,1450769257
-23.4333,43.8833,Ambohimahavelona,Madagascar,1450064416
-20.6667,47.0833,Ambohimahazo,Madagascar,1450127672
-18.9167,47.6500,Ambohimalaza,Madagascar,1450435158
-19.8000,46.6167,Ambohimanambola,Madagascar,1450223551
-18.9500,47.6000,Ambohimanambola,Madagascar,1450250431
-19.5167,47.4167,Ambohimandroso,Madagascar,1450713375
-21.8833,46.9500,Ambohimandroso,Madagascar,1450921754
-18.7667,47.5667,Ambohimanga,Madagascar,1450695670
-20.8667,47.6000,Ambohimanga Atsimo,Madagascar,1450661685
-18.9167,47.6000,Ambohimangakely,Madagascar,1450074776
-19.6500,46.7333,Ambohimasina,Madagascar,1450467942
-19.2333,47.7833,Ambohimiadana,Madagascar,1450165876
-19.8500,47.1500,Ambohimiarivo,Madagascar,1450510741
-21.0500,47.5000,Ambohimiera,Madagascar,1450697311
-19.7833,47.4333,Ambohimierambe-Andranofito,Madagascar,1450911993
-20.7167,47.4333,Ambohimitombo,Madagascar,1450710090
-21.0333,47.0500,Ambohinamboarina,Madagascar,1450981724
-21.2000,47.9167,Ambohinihaonana,Madagascar,1450959111
-19.1500,47.3667,Ambohipandrano,Madagascar,1450475583
-19.4333,47.4167,Ambohipihaonana,Madagascar,1450648421
-16.0167,47.6500,Ambohitoaka,Madagascar,1450398424
-19.7500,47.5667,Ambohitompoina,Madagascar,1450129746
-15.2333,50.4500,Ambohitralanana,Madagascar,1450680382
-18.9167,47.1833,Ambohitrambo,Madagascar,1450876774
-17.4667,48.3500,Ambohitrarivo,Madagascar,1450446247
-18.8667,47.4333,Ambohitrimanjaka,Madagascar,1450986963
-18.7000,47.6833,Ambohitrolomahitsy,Madagascar,1450324872
-18.9667,46.3167,Ambohitromby,Madagascar,1450386250
-18.4333,47.1500,Ambohitromby,Madagascar,1450098921
-17.6833,48.4500,Ambohitsilaozana,Madagascar,1450224032
-19.9500,47.1167,Ambohitsimanova,Madagascar,1450894938
47.4042,0.9800,Amboise,France,1250134855
-15.1000,48.8000,Ambolidibe Atsinanana,Madagascar,1450065794
-21.9500,47.4333,Ambolomadinika,Madagascar,1450992662
-16.1667,46.7000,Ambolomoty,Madagascar,1450504467
-18.2667,47.4000,Ambolotarakely,Madagascar,1450049599
-3.7000,128.1667,Ambon,Indonesia,1360756802
-25.2500,45.8333,Ambondro,Madagascar,1450087173
-20.3333,46.9167,Ambondromisotra,Madagascar,1450889572
-21.2667,46.9833,Ambondrona,Madagascar,1450002861
-18.3250,47.9542,Ambongamarina,Madagascar,1450442766
-23.4500,47.2667,Ambongo,Madagascar,1450621707
-24.6667,44.9500,Amborompotsy,Madagascar,1450600717
-20.6000,46.2500,Amborompotsy,Madagascar,1450347473
-22.6667,44.4000,Amboronabo,Madagascar,1450915976
-21.9167,47.7667,Amborondra,Madagascar,1450089809
-20.5167,47.2500,Ambositra,Madagascar,1450276194
-21.7500,48.0500,Ambotaka,Madagascar,1450933772
-25.1764,46.0833,Ambovombe,Madagascar,1450135666
-20.7667,47.0833,Ambovombe Afovoany,Madagascar,1450912618
-14.3667,49.0500,Ambovonomby,Madagascar,1450681597
-7.8500,13.1167,Ambriz,Angola,1024609563
42.5194,43.1500,Ambrolauri,Georgia,1268370586
31.5617,-8.8944,Amdel,Morocco,1504656724
69.7631,61.6678,Amderma,Russia,1643719353
16.0658,22.8431,Amdjarass,Chad,1148268495
20.5486,-104.0431,Ameca,Mexico,1484716155
19.7500,-99.1711,Amecameca de Juarez,Mexico,1484353804
39.0269,-84.2218,Amelia,United States,1840010681
42.5500,12.4167,Amelia,Italy,1380920464
-11.4550,-41.4358,America Dourada,Brazil,1076121763
38.1796,-122.2583,American Canyon,United States,1840018834
40.3783,-111.7953,American Fork,United States,1840018756
-22.7386,-47.3311,Americana,Brazil,1076922153
-21.7361,-48.1114,Americo Brasiliense,Brazil,1076027153
32.0736,-84.2248,Americus,United States,1840013841
52.1500,5.3833,Amersfoort,Netherlands,1528206992
-27.0078,29.8711,Amersfoort,South Africa,1710004486
51.6770,-0.6030,Amersham,United Kingdom,1826557635
42.0256,-93.6217,Ames,United States,1840007019
42.9000,-8.6333,Ames,Spain,1724737109
42.8530,-70.9446,Amesbury,United States,1840132383
51.1730,-1.7800,Amesbury,United Kingdom,1826157369
30.5308,-9.3283,Ameskroud,Morocco,1504251726
38.8500,21.1667,Amfilochia,Greece,1300058250
22.4156,88.3051,Amgachia,India,1356436848
26.0518,86.6906,Amha,India,1356259953
43.0117,-78.7570,Amherst,United States,1840057194
41.4022,-82.2303,Amherst,United States,1840000640
42.8706,-71.6068,Amherst,United States,1840054510
45.8167,-64.2167,Amherst,Canada,1124895094
42.1000,-83.0833,Amherstburg,Canada,1124696938
36.0308,140.2148,Ami,Japan,1392730678
25.0405,84.3096,Amiawar,India,1356716856
49.8920,2.2990,Amiens,France,1250794759
47.9742,2.7708,Amilly,France,1250170473
26.2300,91.6700,Amingaon,India,1356156486
16.0572,75.9489,Amingarh,India,1356819437
17.5241,78.3242,Aminpur,India,1356831114
34.3000,35.8000,Amioun,Lebanon,1422143071
40.4264,49.9836,Amircan,Azerbaijan,1031561618
34.7250,44.5875,Amirli,Iraq,1368331180
40.2905,-75.7477,Amity,United States,1840151686
40.6696,-73.4156,Amityville,United States,1840005140
31.2167,-8.2500,Amizmiz,Morocco,1504971543
25.0641,84.5591,Amjhar,India,1356386670
22.5578,75.1185,Amjhera,India,1356061312
21.9248,78.1279,Amla,India,1356126635
37.0944,50.1928,Amlash,Iran,1364041120
31.9497,35.9328,Amman,Jordan,1400522593
15.5802,80.1488,Ammanabrolu,India,1356545605
51.8000,-3.9930,Ammanford,United Kingdom,1826559160
10.7948,79.3199,Ammapettai,India,1356150020
11.6197,77.7426,Ammapettai,India,1356656152
13.1784,79.4169,Ammavarikuppam,India,1356257144
35.8667,1.1167,Ammi Moussa,Algeria,1012840754
43.4745,-111.9568,Ammon,United States,1840018643
12.9750,79.3628,Ammur,India,1356248445
15.8500,104.6333,Amnat Charoen,Thailand,1764038011
49.2614,6.1425,Amneville,France,1250776698
26.8975,84.8182,Amodei,India,1356438929
36.4703,52.3467,Amol,Iran,1364107935
1.6517,32.8250,Amolatar,Uganda,1800458737
39.5178,67.8131,Amondara,Tajikistan,1762761916
-3.3833,-39.8333,Amontada,Brazil,1076240159
38.6230,-9.1200,Amora,Portugal,1620947611
43.2192,-2.7342,Amorebieta,Spain,1724617538
48.5667,-78.1167,Amos,Canada,1124939649
36.3833,5.4167,Amoucha,Algeria,1012766595
-14.7500,50.2167,Ampahana,Madagascar,1450937375
-19.0833,47.2000,Ampahimanga,Madagascar,1450235819
-0.8667,121.5833,Ampana,Indonesia,1360217456
-15.6667,50.2000,Ampanavoana,Madagascar,1450838781
-13.8667,49.9667,Ampanefena,Madagascar,1450684282
-18.9750,47.4944,Ampanety,Madagascar,1450696660
-24.6833,44.7500,Ampanihy,Madagascar,1450328270
-18.7167,47.3000,Ampanotokana,Madagascar,1450337048
-17.5833,48.2167,Amparafaravola,Madagascar,1450596201
-17.5167,48.5667,Amparihitsokatra,Madagascar,1450080667
-15.6667,47.1167,Amparihy,Madagascar,1450241299
-22.7031,-46.7650,Amparo,Brazil,1076656250
-19.1833,46.5833,Ampary,Madagascar,1450964299
-21.7333,48.0333,Ampasimanjeva,Madagascar,1450896480
-18.8194,49.0736,Ampasimanolotra,Madagascar,1450133972
-15.9333,47.7500,Ampasimatera,Madagascar,1450446865
-17.6667,49.1333,Ampasimazava,Madagascar,1450568333
-16.8167,49.0000,Ampasimbe,Madagascar,1450702079
-24.3667,47.1667,Ampasimena,Madagascar,1450235896
-18.9667,48.3500,Ampasimpotsy-Gara,Madagascar,1450245275
-17.2167,49.4167,Ampasina-Maningory,Madagascar,1450030003
-20.5167,48.0000,Ampasinambo,Madagascar,1450644953
-23.3500,47.4667,Ampataka,Madagascar,1450220197
6.8348,124.4581,Ampatuan,Philippines,1608744041
-19.0419,46.7328,Ampefy,Madagascar,1450915627
40.6500,22.9167,Ampelokipoi,Greece,1300184728
-25.9150,-53.4728,Ampere,Brazil,1076399065
-21.1333,47.2167,Ampitahana,Madagascar,1450688601
-17.7833,48.3833,Ampitasimo,Madagascar,1450380832
-18.9333,47.4750,Ampitatafika,Madagascar,1450438823
-15.0333,50.3000,Ampohibe,Madagascar,1450141886
-13.4167,49.9500,Ampondra,Madagascar,1450375253
-22.4667,47.8000,Amporoforo,Madagascar,1450014103
40.7106,0.5808,Amposta,Spain,1724566001
52.0263,-0.4906,Ampthill,United Kingdom,1826072891
16.3833,78.8333,Amrabad,India,1356022195
20.9258,77.7647,Amravati,India,1356462099
21.6006,71.2164,Amreli,India,1356536773
47.5500,9.3000,Amriswil,Switzerland,1756967253
28.1167,81.6000,Amritpur,Nepal,1524026946
31.6400,74.8600,Amritsar,India,1356926507
28.9044,78.4675,Amroha,India,1356146062
26.5733,82.4357,Amsin,India,1356565392
52.3000,4.8500,Amstelveen,Netherlands,1528243202
52.3728,4.8936,Amsterdam,Netherlands,1528355309
42.9420,-74.1906,Amsterdam,United States,1840000391
48.1167,14.8667,Amstetten,Austria,1040466200
22.5834,88.0104,Amta,India,1356710048
26.1000,91.3900,Amtala,India,1356341147
22.3669,88.2777,Amtala,India,1356179828
22.1370,90.2280,Amtali,Bangladesh,1050553814
35.2385,-4.7943,Amtar,Morocco,1504617084
15.9301,80.6899,Amudalapalle,India,1356024163
18.4167,83.9000,Amudalavalasa,India,1356850881
1.9522,34.9444,Amudat,Uganda,1800886754
17.8387,121.7235,Amulung,Philippines,1608751634
-2.4177,115.2494,Amuntai,Indonesia,1360306329
2.0300,33.6431,Amuria,Uganda,1800838006
43.0528,-3.0014,Amurrio,Spain,1724144899
50.2167,136.9000,Amursk,Russia,1643243118
2.8186,31.8642,Amuru,Uganda,1800642608
47.7833,38.4833,Amvrosiivka,Ukraine,1804821911
26.7362,84.5818,Amwa Majhar,India,1356091183
19.7833,94.0333,An,Burma,1104637807
53.9910,-7.3601,An Cabhan,Ireland,1372007853
21.3333,106.8500,An Chau,Vietnam,1704328955
13.9531,108.6569,An Khe,Vietnam,1704968278
34.0167,36.7167,An Nabk,Syria,1760474665
32.0000,44.3300,An Najaf,Iraq,1368003357
31.0439,46.2575,An Nasiriyah,Iraq,1368273311
36.1756,37.2278,An Nayrab,Syria,1760678777
13.9170,109.0830,An Nhon,Vietnam,1704548208
19.1200,42.1300,An Nimas,Saudi Arabia,1682459035
32.5000,45.3333,An Nu`maniyah,Iraq,1368555186
12.6925,28.4233,An Nuhud,Sudan,1729223651
10.8500,105.0833,An Phu,Vietnam,1704682983
10.1958,106.3314,An Thanh B,Vietnam,1704953278
35.9900,129.2270,An'gang,"Korea, South",1410507369
9.4819,-64.4917,Anaco,Venezuela,1862074247
46.0608,-113.0678,Anaconda,United States,1840074775
48.4878,-122.6292,Anacortes,United States,1840018366
40.4408,-8.4350,Anadia,Portugal,1620362655
-9.6844,-36.3042,Anadia,Brazil,1076360866
64.7333,177.5167,Anadyr,Russia,1643453469
-14.6000,-41.1333,Anage,Brazil,1076575935
41.7422,13.1583,Anagni,Italy,1380482139
34.3722,41.9875,Anah,Iraq,1368909811
33.8390,-117.8574,Anaheim,United States,1840019322
-15.0833,47.9333,Anahidrano,Madagascar,1450053738
28.4800,-106.7442,Anahuac,Mexico,1484106283
9.6003,76.6846,Anaikal,India,1356161433
9.9615,78.1118,Anaiyur,India,1356235431
-0.9869,-49.9400,Anajas,Brazil,1076668693
-3.2639,-44.6200,Anajatuba,Brazil,1076287191
17.6913,83.0039,Anakapalle,India,1356285975
12.9823,80.1282,Anakaputtur,India,1356301119
-20.3333,44.5000,Analaiva,Madagascar,1450809706
-14.6333,47.7500,Analalava,Madagascar,1450593312
-24.2333,47.2167,Analamary,Madagascar,1450722054
-22.4667,43.6500,Analamisampy,Madagascar,1450834889
-20.3167,44.6833,Analamitsivalana,Madagascar,1450477836
-17.1667,49.4833,Analanampotsy,Madagascar,1450341522
-24.2500,47.2000,Analapatsy,Madagascar,1450179269
-18.4083,47.7083,Analaroa,Madagascar,1450569110
-18.9667,46.7167,Analavory,Madagascar,1450643533
-14.4500,49.0500,Analila,Madagascar,1450364545
-3.5800,-61.4039,Anama,Brazil,1076345871
10.5830,76.9344,Anamalais,India,1356352228
13.7333,-87.8667,Anamoros,El Salvador,1222875440
36.0243,32.8026,Anamur,Turkey,1792088719
33.9167,134.6667,Anan,Japan,1392003091
42.7300,77.6600,Anan'evo,Kyrgyzstan,1417852557
-6.3658,-48.0728,Ananas,Brazil,1076131174
22.5560,72.9510,Anand,India,1356044073
11.0900,76.9422,Anandapuram,India,1356159561
27.1000,83.2833,Anandnagar,India,1356562036
21.2141,86.1249,Anandpur,India,1356018392
31.2393,76.5025,Anandpur,India,1356058243
25.6192,84.8673,Anandpur,India,1356688474
-1.3658,-48.3719,Ananindeua,Brazil,1076025295
13.4902,79.2895,Ananipalle,India,1356390426
16.9767,81.4442,Anantapalle,India,1356893543
14.6800,77.5990,Anantapur,India,1356296545
14.0014,79.3319,Anantarazupeta,India,1356328441
14.5833,79.4167,Anantasagaram,India,1356087662
10.8925,75.9983,Anantavur,India,1356684661
16.8890,75.0146,Anantpur,India,1356733791
15.7304,120.6264,Anao,Philippines,1608758954
9.7778,125.4231,Anao-aon,Philippines,1608949695
44.8944,37.3167,Anapa,Russia,1643287068
4.5503,-74.5361,Anapoima,Colombia,1170450555
-16.3339,-48.9519,Anapolis,Brazil,1076208869
-3.6719,-43.1158,Anapurus,Brazil,1076087687
30.8694,55.2678,Anar,Iran,1364013146
-20.4839,-55.8069,Anastacio,Brazil,1076847200
39.6333,20.8667,Anatoli,Greece,1300401701
-28.4667,-62.8333,Anatuya,Argentina,1032511298
14.5645,75.1523,Anavatti,India,1356071395
30.6333,-8.0500,Anazzou,Morocco,1504693352
-20.8056,-40.6444,Anchieta,Brazil,1076302227
61.1508,-149.1091,Anchorage,United States,1840023385
8.9700,-79.5500,Ancon,Panama,1591827249
43.6169,13.5167,Ancona,Italy,1380597324
-12.9833,39.8500,Ancuabe,Mozambique,1508613485
-41.8667,-73.8333,Ancud,Chile,1152760614
46.4240,125.3520,Anda,China,1156142150
16.2896,119.9491,Anda,Philippines,1608003034
9.7440,124.5760,Anda,Philippines,1608563628
-30.2303,-71.0858,Andacollo,Chile,1152597504
-13.6575,-73.3833,Andahuaylas,Peru,1604615351
-18.2000,48.2833,Andaingo Gara,Madagascar,1450562250
23.6000,87.2000,Andal,India,1356681205
-24.6667,45.6000,Andalatanosy,Madagascar,1450638418
-27.6000,-66.3167,Andalgala,Argentina,1032960533
4.1667,-76.1667,Andalucia,Colombia,1170644836
31.3102,-86.4781,Andalusia,United States,1840004591
-30.4485,137.1651,Andamooka,Australia,1036260794
10.7498,79.8226,Andanappettai,India,1356182049
-14.6500,49.6500,Andapa,Madagascar,1450290201
-16.9167,49.3833,Andapafito,Madagascar,1450969130
-11.7125,-40.6258,Andarai,Brazil,1076838333
-17.3333,48.9000,Andasibe,Madagascar,1450830509
-18.9333,48.4167,Andasibe,Madagascar,1450648431
-22.3000,47.7500,Andemaka,Madagascar,1450024135
50.4833,5.1000,Andenne,Belgium,1056666375
15.4283,3.0183,Anderanboukan,Mali,1466636444
-21.0930,149.1855,Andergrove,Australia,1036907443
50.8333,4.3333,Anderlecht,Belgium,1056297471
50.4000,4.2667,Anderlues,Belgium,1056010234
50.4397,7.4017,Andernach,Germany,1276142194
44.7433,-1.0892,Andernos-les-Bains,France,1250155920
40.0891,-85.6892,Anderson,United States,1840007242
34.5211,-82.6478,Anderson,United States,1840013579
40.4497,-122.2950,Anderson,United States,1840018733
35.2657,-78.9580,Anderson Creek,United States,1840089354
5.5833,-75.9167,Andes,Colombia,1170727383
25.2574,85.4548,Andhana,India,1356063339
26.3771,86.3341,Andhra Tharhi,India,1356372709
28.9761,119.6403,Andicun,China,1156408436
40.7833,72.3333,Andijon,Uzbekistan,1860445095
40.6444,72.3639,Andijon,Uzbekistan,1860676293
-17.0167,48.5833,Andilamena,Madagascar,1450560153
-17.3500,48.5333,Andilana Avaratra,Madagascar,1450556942
-17.9333,48.2333,Andilanatoby,Madagascar,1450217709
32.4714,48.3489,Andimeshk,Iran,1364453657
39.6172,116.4944,Andingcun,China,1156246794
11.0920,77.3150,Andipalaiyam,India,1356165565
9.9980,77.6210,Andippatti,India,1356542749
-23.0508,-50.2289,Andira,Brazil,1076197418
37.5764,36.3506,Andirin,Turkey,1792314196
12.5342,78.7024,Andiyappanur,India,1356978385
36.9500,65.1167,Andkhoy,Afghanistan,1004472345
43.2167,-2.0167,Andoain,Spain,1724830496
-13.4000,48.2666,Andoany,Madagascar,1450689047
-2.9042,-76.4028,Andoas,Peru,1604038416
-15.9000,48.5000,Andohajango,Madagascar,1450979666
-18.9750,47.5333,Andoharanofotsy,Madagascar,1450381707
-21.4667,46.9500,Andoharanomaitso,Madagascar,1450341443
-18.7500,46.6333,Andolofotsy,Madagascar,1450054125
-21.4667,47.9500,Andonabe,Madagascar,1450863479
-19.8833,48.2167,Andonabe Atsimo,Madagascar,1450506198
-17.7667,49.3847,Andondabe,Madagascar,1450987708
36.5592,128.7289,Andong,"Korea, South",1410095935
-10.3450,-39.8328,Andorinha,Brazil,1076869918
42.5000,1.5000,Andorra la Vella,Andorra,1020828846
51.2080,-1.4800,Andover,United Kingdom,1826277987
42.6466,-71.1651,Andover,United States,1840053666
45.2571,-93.3265,Andover,United States,1840006716
37.6873,-97.1352,Andover,United States,1840007546
-18.9544,49.1094,Andovoranto,Madagascar,1450518984
-22.0678,-46.5689,Andradas,Brazil,1076414147
-20.8958,-51.3789,Andradina,Brazil,1076417183
-21.4667,47.0833,Andrainjato,Madagascar,1450000119
39.5833,2.4167,Andraitx,Spain,1724876017
-14.6167,49.7167,Andrakata,Madagascar,1450466560
-17.9635,44.7855,Andramy,Madagascar,1450011952
-20.9000,48.2667,Andranambolava,Madagascar,1450035681
-16.3833,46.9000,Andranofasika,Madagascar,1450575484
-16.6000,47.1333,Andranomamy,Madagascar,1450780614
-19.7833,47.1000,Andranomanelatra,Madagascar,1450464375
-16.5667,45.5833,Andranomavo,Madagascar,1450968548
-23.3167,44.5833,Andranomenatsa,Madagascar,1450593069
-15.8000,47.7667,Andranomeva,Madagascar,1450392051
-21.2833,43.7333,Andranopasy,Madagascar,1450818607
-17.6167,44.0667,Andranovao,Madagascar,1450946654
-19.6500,47.6333,Andranovelona,Madagascar,1450879443
-21.6333,46.9833,Andranovorivato,Madagascar,1450284938
-23.1333,44.1333,Andranovory,Madagascar,1450787147
-15.9664,-41.4978,Andre Fernandes,Brazil,1076103551
-14.5833,48.1833,Andreba,Madagascar,1450633860
-21.7400,-44.3089,Andrelandia,Brazil,1076721211
-20.1500,46.6500,Andrembesoa,Madagascar,1450749932
48.9817,2.0592,Andresy,France,1250507183
32.3207,-102.5520,Andrews,United States,1840019474
41.2167,16.3000,Andria,Italy,1380463498
-17.5833,46.9333,Andriba,Madagascar,1450511055
-15.4000,47.5167,Andribavontsona,Madagascar,1450250205
42.7300,19.7900,Andrijevica,Montenegro,1499379378
-25.1167,44.4500,Androka,Madagascar,1450742982
-25.0219,44.0749,Androka,Madagascar,1450495720
-15.7500,49.2000,Androndrona Anava,Madagascar,1450535448
-20.5167,48.2333,Androrangavola,Madagascar,1450693503
-21.5000,47.7167,Androrangavola,Madagascar,1450623784
-24.1000,46.3000,Androtsy,Madagascar,1450017816
-21.3333,47.2667,Androy,Madagascar,1450421324
49.8550,19.3414,Andrychow,Poland,1616553516
38.0392,-4.0506,Andujar,Spain,1724144147
8.5969,76.8664,Andurkonam,India,1356216802
6.2333,1.6000,Aneho,Togo,1768922287
12.7105,77.6967,Anekal,India,1356802211
18.7781,-98.9850,Anenecuilco,Mexico,1484003918
46.8833,29.2167,Anenii Noi,Moldova,1498650298
37.8833,58.5333,Anew,Turkmenistan,1795817680
14.5925,100.4572,Ang Thong,Thailand,1764529940
16.7571,121.7479,Angadanan,Philippines,1608436473
9.2063,76.7835,Angadikkal Tekkekara,India,1356161021
16.2392,80.6117,Angalakuduru Malepalle,India,1356531518
10.5282,76.9962,Angalakurichchi,India,1356162956
13.6287,78.4857,Angallu,India,1356129922
10.1960,76.3860,Angamali,India,1356561428
11.3289,3.0406,Angara-Debou,Benin,1204754411
52.5500,103.9000,Angarsk,Russia,1643989118
14.9281,121.0293,Angat,Philippines,1608108649
-23.4903,-48.4128,Angatuba,Brazil,1076790515
18.5969,-95.4453,Angel R. Cabada,Mexico,1484667573
15.1472,120.5847,Angeles City,Philippines,1608036027
56.2500,12.8500,Angelholm,Sweden,1752870016
-8.8833,-36.2833,Angelim,Brazil,1076806495
6.1333,-75.7000,Angelopolis,Colombia,1170231958
53.0333,14.0000,Angermunde,Germany,1276588063
47.4736,-0.5542,Angers,France,1250962174
22.3913,72.9946,Anghad,India,1356759100
-12.0069,-44.6939,Angical,Brazil,1076374273
11.7742,79.5255,Angichettippalaiyam,India,1356202958
-5.6658,-36.6008,Angicos,Brazil,1076687770
43.4850,-1.5183,Anglet,France,1250237596
29.1721,-95.4293,Angleton,United States,1840019672
-37.8000,-72.7167,Angol,Chile,1152404762
41.6433,-85.0050,Angola,United States,1840007084
14.5234,121.1536,Angono,Philippines,1608373503
37.4639,67.1500,Angor,Uzbekistan,1860931614
6.8667,-75.3333,Angostura,Colombia,1170569077
45.6500,0.1600,Angouleme,France,1250150112
38.6556,-27.2194,Angra do Heroismo,Portugal,1620152939
-23.0067,-44.3181,Angra dos Reis,Brazil,1076039737
41.0167,70.1436,Angren,Uzbekistan,1860045958
40.7333,14.5667,Angri,Italy,1380361443
-12.1496,-39.2468,Anguera,Brazil,1076371301
42.0833,12.2667,Anguillara Sabazia,Italy,1380136899
20.8381,85.0956,Angul,India,1356441869
38.4180,115.3270,Anguo,China,1156172518
44.3167,-79.8833,Angus,Canada,1124760864
23.7317,85.9858,Angwali,India,1356183404
50.3306,3.2519,Aniche,France,1250709918
-16.4628,-49.9606,Anicuns,Brazil,1076386139
10.9785,122.7531,Anilao,Philippines,1608171466
10.4325,121.9253,Anini-y,Philippines,1608618256
-9.1889,-43.0458,Anisio de Abreu,Brazil,1076098947
55.9417,38.1500,Aniskino,Russia,1643484680
1.8500,10.7667,Anisoc,Equatorial Guinea,1226309663
46.7167,142.5167,Aniva,Russia,1643419980
-12.7333,49.2333,Anivorano Avaratra,Madagascar,1450739750
22.0417,75.0552,Anjad,India,1356029275
-16.3667,46.6167,Anjahabe,Madagascar,1450925843
-18.3667,48.9667,Anjahamana,Madagascar,1450772038
-18.0167,49.2000,Anjahamarina,Madagascar,1450675952
-17.3833,49.1333,Anjahambe,Madagascar,1450498223
-15.3833,49.7500,Anjanazana,Madagascar,1450456490
21.1500,77.2800,Anjangaon,India,1356712792
-14.1333,50.0833,Anjangoveratra,Madagascar,1450405493
11.8822,75.5097,Anjarkandi,India,1356069884
12.1395,77.9808,Anjehalli,India,1356853761
-16.4833,46.9667,Anjiajia,Madagascar,1450871087
-14.0667,49.7333,Anjialava,Madagascar,1450285791
-15.1667,47.7833,Anjiamangirana I,Madagascar,1450794562
-19.6333,45.9667,Anjoma-Ramartina,Madagascar,1450497768
34.9587,137.0803,Anjomachi,Japan,1392081830
-18.4033,47.8500,Anjozorobe,Madagascar,1450597043
39.6200,125.6600,Anju,"Korea, North",1408625970
10.2444,78.0794,Anjukulippatti,India,1356225799
15.5833,73.7333,Anjuna,India,1356248951
10.5992,76.1553,Anjur,India,1356705661
-18.9667,47.7500,Ankadimanga,Madagascar,1450905081
-19.0667,47.6667,Ankadinandriana,Madagascar,1450861528
-21.4667,47.1500,Ankadindambo,Madagascar,1450657492
-19.0000,46.4639,Ankadinondry-Sakay,Madagascar,1450977196
-21.2000,47.2500,Ankafina Tsarafidy,Madagascar,1450188416
16.0333,74.7000,Ankalgi,India,1356759550
32.6854,109.0290,Ankang,China,1156255711
39.9300,32.8500,Ankara,Turkey,1792572891
-16.3500,46.1833,Ankarabato,Madagascar,1450143070
-25.0167,46.7500,Ankaramena,Madagascar,1450651511
-13.9833,48.2000,Ankaramy,Madagascar,1450209200
45.5793,13.7379,Ankaran,Slovenia,1705521676
-23.0833,47.6333,Ankarana-Miraihina,Madagascar,1450677715
-18.9000,47.4667,Ankaraobato,Madagascar,1450653846
-15.4167,48.9167,Ankarongana,Madagascar,1450971281
-16.3000,44.8500,Ankasakasabe,Madagascar,1450475974
-13.6167,48.3667,Ankatafa,Madagascar,1450000267
-18.7722,45.2931,Ankavandra,Madagascar,1450061634
-21.5036,45.2094,Ankazoabokely,Madagascar,1450489692
-16.1167,46.7500,Ankazomborona,Madagascar,1450164210
-19.6500,46.5000,Ankazomiriotra,Madagascar,1450000270
-18.6833,47.8167,Ankazondandy,Madagascar,1450557561
-19.9500,48.5500,Ankazotsifantatra,Madagascar,1450068487
41.7288,-93.6031,Ankeny,United States,1840007066
-21.0333,47.1167,Ankerana,Madagascar,1450047742
-15.6000,48.7167,Ankiabe-Salohy,Madagascar,1450727399
-21.7000,43.9000,Ankiliabo,Madagascar,1450311896
-24.6833,44.7167,Ankiliabo,Madagascar,1450784803
-22.7667,43.6167,Ankililoaka,Madagascar,1450496497
-22.9500,43.5667,Ankilimalinika,Madagascar,1450201063
-24.4667,44.9667,Ankilimivory,Madagascar,1450659823
-20.2833,44.6333,Ankilivalo,Madagascar,1450597906
-20.4000,45.0500,Ankilizato,Madagascar,1450796220
-22.3833,46.0833,Ankily,Madagascar,1450223255
15.9154,80.2108,Ankireddikuntapalem,India,1356617917
-16.7667,46.4500,Ankirihitra,Madagascar,1450483503
-19.6333,44.6000,Ankirondro,Madagascar,1450343397
-19.2833,46.4833,Ankisabe,Madagascar,1450772097
53.8500,13.6833,Anklam,Germany,1276192154
16.4200,74.5800,Ankli,India,1356026296
-15.4000,49.6500,Ankofa,Madagascar,1450855797
14.6605,74.3047,Ankola,India,1356300206
5.7919,0.9003,Anloga,Ghana,1288427445
31.2667,113.6667,Anlu,China,1156406202
42.2759,-83.7310,Ann Arbor,United States,1840003172
33.3472,-96.5508,Anna,United States,1840019397
7.2633,-58.4806,Anna Regina,Guyana,1328787362
36.9000,7.7667,Annaba,Algeria,1012600001
50.5800,13.0022,Annaberg-Buchholz,Germany,1276866777
36.3263,138.8871,Annaka,Japan,1392614505
9.8575,76.4009,Annakattumula,India,1356510384
11.7463,76.0415,Annakunnu,India,1356014678
11.4000,79.7333,Annamalainagar,India,1356979937
54.9830,-3.2660,Annan,United Kingdom,1826837081
38.8324,-77.1960,Annandale,United States,1840006011
38.9706,-76.5047,Annapolis,United States,1840005928
38.9409,-76.4997,Annapolis Neck,United States,1840039445
50.6264,3.1506,Annappes,France,1250359981
16.7840,79.3020,Annaram,India,1356732259
17.0937,81.5799,Anndevarapeta,India,1356764826
45.9160,6.1330,Annecy,France,1250551848
45.9200,6.1428,Annecy-le-Vieux,France,1250494600
46.1958,6.2364,Annemasse,France,1250122238
15.4251,75.4335,Annigeri,India,1356141254
33.6712,-85.8135,Anniston,United States,1840006563
50.5300,2.9336,Annoeullin,France,1250709099
45.2408,4.6714,Annonay,France,1250947806
11.2325,77.1069,Annur,India,1356154050
38.0833,23.7000,Ano Liosia,Greece,1300536018
37.4383,24.9122,Ano Syros,Greece,1300291821
45.2099,-93.3893,Anoka,United States,1840006717
4.7617,-74.4640,Anolaima,Colombia,1170457629
5.1667,-1.1167,Anomabu,Ghana,1288745249
-21.3667,44.4667,Anontsibe-Sakalava,Madagascar,1450810340
-3.7728,-61.6442,Anori,Brazil,1076651452
7.0736,-75.1458,Anori,Colombia,1170571922
-22.0167,47.7833,Anorombato,Madagascar,1450314536
-17.5167,48.4333,Anororo,Madagascar,1450000237
-18.7833,47.4167,Anosiala,Madagascar,1450613112
-19.9167,47.0333,Anosiarivo,Madagascar,1450015265
-18.8667,46.7500,Anosibe-Ifanja,Madagascar,1450904435
-21.5000,47.9833,Anosimparihy,Madagascar,1450447380
-18.9333,47.5000,Anosipatrana,Madagascar,1450506869
-22.7333,47.7667,Anosivelo,Madagascar,1450013354
-18.8000,47.5500,Anosy Avaratra,Madagascar,1450108069
18.8989,103.0919,Anouvong,Laos,1418294155
-14.7333,49.8333,Anoviara,Madagascar,1450027060
35.3353,136.6654,Anpachi,Japan,1392003423
30.5318,117.1153,Anqing,China,1156238875
36.4780,119.2190,Anqiu,China,1156592047
51.5667,8.3333,Anrochte,Germany,1276004303
50.6667,5.5167,Ans,Belgium,1056084793
37.3167,126.8333,Ansan,"Korea, South",1410585171
49.3000,10.5833,Ansbach,Germany,1276572551
18.8333,-72.8667,Anse a Galets,Haiti,1332098898
18.0500,-71.7500,Anse a Pitre,Haiti,1332458305
18.5000,-74.4500,Anse d'Hainault,Haiti,1332108128
19.6333,-73.0500,Anse Rouge,Haiti,1332665513
19.9000,-72.6167,Anse-a-Foleur,Haiti,1332252871
18.5167,-73.3500,Anse-a-Veau,Haiti,1332029379
37.0078,127.2797,Anseong,"Korea, South",1410960903
5.2381,-75.7840,Anserma,Colombia,1170000614
4.8000,-76.0000,Ansermanuevo,Colombia,1170498489
48.2083,14.2889,Ansfelden,Austria,1040496902
41.1080,122.9940,Anshan,China,1156901825
39.7144,118.9964,Anshan,China,1156524522
26.2531,105.9476,Anshun,China,1156415948
39.9167,-8.4333,Ansiao,Portugal,1620604793
15.6594,0.5017,Ansongo,Mali,1466948813
41.3443,-73.0689,Ansonia,United States,1840004846
41.0073,-8.6250,Anta,Portugal,1620706972
-22.1500,47.4167,Antadinga,Madagascar,1450101676
-15.3167,49.8000,Antakotako,Madagascar,1450258709
-14.8833,50.2500,Antalaha,Madagascar,1450649394
-24.3833,44.4000,Antaly,Madagascar,1450745641
36.8874,30.7075,Antalya,Turkey,1792988434
-22.3000,46.7667,Antambohobe,Madagascar,1450913351
-19.4000,47.6333,Antanamalaza,Madagascar,1450027793
-19.6667,47.3333,Antanambao,Madagascar,1450771777
-15.1667,50.3667,Antanambao,Madagascar,1450199403
-19.3167,48.7833,Antanambao Mahatsara,Madagascar,1450169284
-16.2500,49.6667,Antanambaobe,Madagascar,1450819233
-16.4333,49.8500,Antanambe,Madagascar,1450702701
-16.3000,49.7500,Antanananivo,Madagascar,1450237966
-18.9100,47.5250,Antananarivo,Madagascar,1450978461
-19.0833,47.9500,Antanandava,Madagascar,1450889393
-17.4833,48.6833,Antanandava,Madagascar,1450418513
-15.8500,48.8167,Antanandava,Madagascar,1450365453
-19.6833,48.3333,Antanandehibe,Madagascar,1450710342
-22.0500,47.4833,Antanankambano,Madagascar,1450483821
-19.6800,47.3300,Antanifotsy,Madagascar,1450226310
-16.8667,49.6333,Antanifotsy,Madagascar,1450612710
-16.2333,46.5167,Antanimasaka,Madagascar,1450865141
-16.9333,48.4833,Antanimenabaka,Madagascar,1450330628
-22.2333,43.7667,Antanimieva,Madagascar,1450718789
-24.8167,45.6667,Antanimora Atsinanana,Madagascar,1450178860
24.6442,87.9213,Antardipa,India,1356686856
-21.0667,47.8500,Antaretra,Madagascar,1450713889
